{"10_0": {"route_id": "10", "direction_id": 0, "stops": [{"stop_id": "HT_134", "stop_name": "Pasar Gamping - A", "seq": 0, "lat": -7.800627, "lon": 110.323811}, {"stop_id": "HT_152", "stop_name": "Pelem Gurih - A", "seq": 1, "lat": -7.799896, "lon": 110.330616}, {"stop_id": "HT_015", "stop_name": "Bayeman - A", "seq": 2, "lat": -7.800346, "lon": 110.337185}, {"stop_id": "HT_039", "stop_name": "Eks Hotel Nataputra", "seq": 3, "lat": -7.800884, "lon": 110.348902}, {"stop_id": "HT_193", "stop_name": "SMP Muh 3", "seq": 4, "lat": -7.802916, "lon": 110.351402}, {"stop_id": "HT_120", "stop_name": "Mualimin - A", "seq": 5, "lat": -7.807875, "lon": 110.350951}, {"stop_id": "HT_240", "stop_name": "Tamansari", "seq": 6, "lat": -7.809838, "lon": 110.356008}, {"stop_id": "HT_075", "stop_name": "KHA Dahlan - A", "seq": 7, "lat": -7.801281, "lon": 110.360133}, {"stop_id": "HT_213", "stop_name": "Senopati", "seq": 8, "lat": -7.801501, "lon": 110.367038}, {"stop_id": "HT_235", "stop_name": "Suryotomo", "seq": 9, "lat": -7.79926, "lon": 110.369312}, {"stop_id": "HT_077", "stop_name": "KR - A", "seq": 10, "lat": -7.781692, "lon": 110.450503}, {"stop_id": "HT_043", "stop_name": "Flyover Lempuyangan", "seq": 11, "lat": -7.790782, "lon": 110.378018}, {"stop_id": "HT_101", "stop_name": "Lempuyangan", "seq": 12, "lat": -7.790441, "lon": 110.373639}, {"stop_id": "HT_007", "stop_name": "BKPM", "seq": 13, "lat": -7.800372, "lon": 110.40235}, {"stop_id": "HT_237", "stop_name": "TNI AL - A", "seq": 14, "lat": -7.792319, "lon": 110.390949}, {"stop_id": "HT_191", "stop_name": "SMKN 5 - A", "seq": 15, "lat": -7.800357, "lon": 110.395063}, {"stop_id": "HT_183", "stop_name": "SGM Kusumanegara - A", "seq": 16, "lat": -7.802084, "lon": 110.393031}, {"stop_id": "HT_237", "stop_name": "TNI AL - A", "seq": 17, "lat": -7.792319, "lon": 110.390949}, {"stop_id": "HT_241", "stop_name": "Tarumartani - A", "seq": 18, "lat": -7.790501, "lon": 110.381988}, {"stop_id": "HT_192", "stop_name": "SMP Kanisius Gayam - A", "seq": 19, "lat": -7.795822, "lon": 110.377749}, {"stop_id": "HT_110", "stop_name": "Malioboro 1", "seq": 20, "lat": -7.790849, "lon": 110.366122}, {"stop_id": "HT_110", "stop_name": "Malioboro 1", "seq": 21, "lat": -7.790849, "lon": 110.366122}, {"stop_id": "HT_111", "stop_name": "Malioboro 2", "seq": 22, "lat": -7.795219, "lon": 110.365592}, {"stop_id": "HT_112", "stop_name": "Malioboro 3", "seq": 23, "lat": -7.7999, "lon": 110.364998}, {"stop_id": "HT_075", "stop_name": "KHA Dahlan - A", "seq": 24, "lat": -7.801281, "lon": 110.360133}, {"stop_id": "HT_125", "stop_name": "Ngabean", "seq": 25, "lat": -7.803719, "lon": 110.356236}, {"stop_id": "HT_102", "stop_name": "Letjen Suprapto", "seq": 26, "lat": -7.790841, "lon": 110.357437}, {"stop_id": "HT_184", "stop_name": "SMA Muh 3", "seq": 27, "lat": -7.80673, "lon": 110.350539}, {"stop_id": "HT_121", "stop_name": "Museum Bahari", "seq": 28, "lat": -7.800978, "lon": 110.349279}, {"stop_id": "HT_132", "stop_name": "Park and Ride Gamping", "seq": 29, "lat": -7.802454, "lon": 110.314878}]}, "11_0": {"route_id": "11", "direction_id": 0, "stops": [{"stop_id": "HT_148", "stop_name": "Pasar Telo - A", "seq": 0, "lat": -7.824382, "lon": 110.373324}, {"stop_id": "HT_072", "stop_name": "Jogokariyan - A", "seq": 1, "lat": -7.82335, "lon": 110.367736}, {"stop_id": "HT_053", "stop_name": "Hotel Pramesthi", "seq": 2, "lat": -7.82158, "lon": 110.365385}, {"stop_id": "HT_178", "stop_name": "Ruba Graha - A", "seq": 3, "lat": -7.820883, "lon": 110.361994}, {"stop_id": "HT_188", "stop_name": "SMAN 7", "seq": 4, "lat": -7.813417, "lon": 110.358131}, {"stop_id": "HT_240", "stop_name": "Tamansari", "seq": 5, "lat": -7.809838, "lon": 110.356008}, {"stop_id": "HT_147", "stop_name": "Pasar Serangan - A", "seq": 6, "lat": -7.801112, "lon": 110.354235}, {"stop_id": "HT_077", "stop_name": "KR - A", "seq": 7, "lat": -7.781692, "lon": 110.450503}, {"stop_id": "HT_194", "stop_name": "SMPN 1 - A", "seq": 8, "lat": -7.777468, "lon": 110.375811}, {"stop_id": "HT_209", "stop_name": "Samsat", "seq": 9, "lat": -7.787165, "lon": 110.359764}, {"stop_id": "HT_194", "stop_name": "SMPN 1 - A", "seq": 10, "lat": -7.777468, "lon": 110.375811}, {"stop_id": "HT_219", "stop_name": "Simpang Gesikan - A", "seq": 11, "lat": -7.773567, "lon": 110.316446}, {"stop_id": "HT_024", "stop_name": "Cik Di Tiro", "seq": 12, "lat": -7.782357, "lon": 110.375104}, {"stop_id": "HT_194", "stop_name": "SMPN 1 - A", "seq": 13, "lat": -7.777468, "lon": 110.375811}, {"stop_id": "HT_194", "stop_name": "SMPN 1 - A", "seq": 14, "lat": -7.777468, "lon": 110.375811}, {"stop_id": "HT_024", "stop_name": "Cik Di Tiro", "seq": 15, "lat": -7.782357, "lon": 110.375104}, {"stop_id": "HT_077", "stop_name": "KR - A", "seq": 16, "lat": -7.781692, "lon": 110.450503}, {"stop_id": "HT_094", "stop_name": "Kotabaru", "seq": 17, "lat": -7.78466, "lon": 110.3714}, {"stop_id": "HT_065", "stop_name": "Jend. Sudirman - A", "seq": 18, "lat": -7.782988, "lon": 110.36955}, {"stop_id": "HT_031", "stop_name": "Diponegoro", "seq": 19, "lat": -7.782886, "lon": 110.362552}, {"stop_id": "HT_209", "stop_name": "Samsat", "seq": 20, "lat": -7.787165, "lon": 110.359764}, {"stop_id": "HT_102", "stop_name": "Letjen Suprapto", "seq": 21, "lat": -7.790841, "lon": 110.357437}, {"stop_id": "HT_125", "stop_name": "Ngabean", "seq": 22, "lat": -7.803719, "lon": 110.356236}, {"stop_id": "HT_073", "stop_name": "Jokteng Kulon", "seq": 23, "lat": -7.813247, "lon": 110.357346}, {"stop_id": "HT_178", "stop_name": "Ruba Graha - A", "seq": 24, "lat": -7.820883, "lon": 110.361994}, {"stop_id": "HT_072", "stop_name": "Jogokariyan - A", "seq": 25, "lat": -7.82335, "lon": 110.367736}, {"stop_id": "HT_148", "stop_name": "Pasar Telo - A", "seq": 26, "lat": -7.824382, "lon": 110.373324}, {"stop_id": "HT_246", "stop_name": "Terminal Giwangan", "seq": 27, "lat": -7.834176, "lon": 110.391835}]}, "12_0": {"route_id": "12", "direction_id": 0, "stops": [{"stop_id": "HT_245", "stop_name": "Terminal Condongcatur", "seq": 0, "lat": -7.756625, "lon": 110.395875}, {"stop_id": "HT_202", "stop_name": "SPBU Concat - A", "seq": 1, "lat": -7.759985, "lon": 110.394935}, {"stop_id": "HT_160", "stop_name": "Prayan - A", "seq": 2, "lat": -7.763473, "lon": 110.393585}, {"stop_id": "HT_236", "stop_name": "Susteran Novisiat", "seq": 3, "lat": -7.76613, "lon": 110.392154}, {"stop_id": "HT_210", "stop_name": "Sanata Dharma", "seq": 4, "lat": -7.775083, "lon": 110.389249}, {"stop_id": "HT_208", "stop_name": "Samirono", "seq": 5, "lat": -7.777646, "lon": 110.387512}, {"stop_id": "HT_174", "stop_name": "RS Panti Rapih", "seq": 6, "lat": -7.776251, "lon": 110.37822}, {"stop_id": "HT_266", "stop_name": "Vokasi UGM", "seq": 7, "lat": -7.774525, "lon": 110.374977}, {"stop_id": "HT_042", "stop_name": "FKG UGM - A", "seq": 8, "lat": -7.771354, "lon": 110.375119}, {"stop_id": "HT_175", "stop_name": "RS Sardjito - A", "seq": 9, "lat": -7.767817, "lon": 110.374276}, {"stop_id": "HT_106", "stop_name": "MM UGM", "seq": 10, "lat": -7.76502, "lon": 110.377002}, {"stop_id": "HT_055", "stop_name": "Hotel Vidi", "seq": 11, "lat": -7.761786, "lon": 110.380208}, {"stop_id": "HT_052", "stop_name": "Hokben Jakal - A", "seq": 12, "lat": -7.757759, "lon": 110.381951}, {"stop_id": "HT_233", "stop_name": "Superindo Jakal - A", "seq": 13, "lat": -7.752579, "lon": 110.384644}, {"stop_id": "HT_139", "stop_name": "Pasar Kolombo - A", "seq": 14, "lat": -7.745353, "lon": 110.388874}, {"stop_id": "HT_046", "stop_name": "Gardu PLN - A", "seq": 15, "lat": -7.739255, "lon": 110.392461}, {"stop_id": "HT_227", "stop_name": "Simpang Palem Raya - A", "seq": 16, "lat": -7.730553, "lon": 110.397561}, {"stop_id": "HT_084", "stop_name": "Kantor Kap. Ngaglik", "seq": 17, "lat": -7.724102, "lon": 110.401272}, {"stop_id": "HT_165", "stop_name": "Puskesmas Ngaglik - A", "seq": 18, "lat": -7.721894, "lon": 110.402556}, {"stop_id": "HT_198", "stop_name": "SMPN 2 Ngaglik - A", "seq": 19, "lat": -7.715823, "lon": 110.40604}, {"stop_id": "HT_204", "stop_name": "SPBU Monjali - A", "seq": 20, "lat": -7.760138, "lon": 110.369535}, {"stop_id": "HT_267", "stop_name": "Wedangan Kampoeng - A", "seq": 21, "lat": -7.702736, "lon": 110.413581}, {"stop_id": "HT_216", "stop_name": "Simpang Besi Jakal - A", "seq": 22, "lat": -7.70021, "lon": 110.415388}, {"stop_id": "HT_273", "stop_name": "YAKKUM - A", "seq": 23, "lat": -7.695592, "lon": 110.418017}, {"stop_id": "HT_021", "stop_name": "Boulevard UII", "seq": 24, "lat": -7.687506, "lon": 110.417273}, {"stop_id": "HT_021", "stop_name": "Boulevard UII", "seq": 25, "lat": -7.687506, "lon": 110.417273}, {"stop_id": "HT_217", "stop_name": "Simpang Degolan - A", "seq": 26, "lat": -7.684067, "lon": 110.419171}, {"stop_id": "HT_177", "stop_name": "Raminten - A", "seq": 27, "lat": -7.675976, "lon": 110.417261}, {"stop_id": "HT_036", "stop_name": "Dusun Kledokan - A", "seq": 28, "lat": -7.672637, "lon": 110.417366}, {"stop_id": "HT_173", "stop_name": "RS Panti Nugroho", "seq": 29, "lat": -7.669267, "lon": 110.417594}, {"stop_id": "HT_248", "stop_name": "Terminal Pakem", "seq": 30, "lat": -7.666865, "lon": 110.419988}, {"stop_id": "HT_181", "stop_name": "SDN Percobaan 3 Pakem", "seq": 31, "lat": -7.668404, "lon": 110.417696}, {"stop_id": "HT_199", "stop_name": "SMPN 4 Pakem", "seq": 32, "lat": -7.669215, "lon": 110.417642}, {"stop_id": "HT_036", "stop_name": "Dusun Kledokan - A", "seq": 33, "lat": -7.672637, "lon": 110.417366}, {"stop_id": "HT_177", "stop_name": "Raminten - A", "seq": 34, "lat": -7.675976, "lon": 110.417261}, {"stop_id": "HT_217", "stop_name": "Simpang Degolan - A", "seq": 35, "lat": -7.684067, "lon": 110.419171}, {"stop_id": "HT_021", "stop_name": "Boulevard UII", "seq": 36, "lat": -7.687506, "lon": 110.417273}, {"stop_id": "HT_021", "stop_name": "Boulevard UII", "seq": 37, "lat": -7.687506, "lon": 110.417273}, {"stop_id": "HT_273", "stop_name": "YAKKUM - A", "seq": 38, "lat": -7.695592, "lon": 110.418017}, {"stop_id": "HT_216", "stop_name": "Simpang Besi Jakal - A", "seq": 39, "lat": -7.70021, "lon": 110.415388}, {"stop_id": "HT_176", "stop_name": "RSU Gramedika - A", "seq": 40, "lat": -7.70113, "lon": 110.416987}, {"stop_id": "HT_182", "stop_name": "SDN Selomulyo - A", "seq": 41, "lat": -7.702391, "lon": 110.420716}, {"stop_id": "HT_080", "stop_name": "Kantor Kal. Sukoharjo - A", "seq": 42, "lat": -7.703843, "lon": 110.425108}, {"stop_id": "HT_099", "stop_name": "Lap. Klidon - A", "seq": 43, "lat": -7.704223, "lon": 110.426571}, {"stop_id": "HT_203", "stop_name": "SPBU Mindi - A", "seq": 44, "lat": -7.704862, "lon": 110.431029}, {"stop_id": "HT_224", "stop_name": "Simpang Losari - A", "seq": 45, "lat": -7.704851, "lon": 110.433006}, {"stop_id": "HT_187", "stop_name": "SMAN 2 Ngaglik - A", "seq": 46, "lat": -7.704858, "lon": 110.43501}, {"stop_id": "HT_252", "stop_name": "Timur Jembatan Yapah - A", "seq": 47, "lat": -7.705049, "lon": 110.43919}, {"stop_id": "HT_255", "stop_name": "Tugu Batas Desa Yapah - A", "seq": 48, "lat": -7.703803, "lon": 110.442614}, {"stop_id": "HT_166", "stop_name": "Puskesmas Ngemplak - A", "seq": 49, "lat": -7.702928, "lon": 110.444678}, {"stop_id": "HT_136", "stop_name": "Pasar Jangkang - A", "seq": 50, "lat": -7.702111, "lon": 110.447333}]}, "13_0": {"route_id": "13", "direction_id": 0, "stops": [{"stop_id": "HT_164", "stop_name": "Pusat Kuliner Belut Godean", "seq": 0, "lat": -7.767618, "lon": 110.293516}, {"stop_id": "HT_083", "stop_name": "Kantor Kap. Godean - A", "seq": 1, "lat": -7.769368, "lon": 110.300242}, {"stop_id": "HT_225", "stop_name": "Simpang Mandungan (Iwak Kalen) - A", "seq": 2, "lat": -7.770049, "lon": 110.303015}, {"stop_id": "HT_092", "stop_name": "Koramil Godean - A", "seq": 3, "lat": -7.771013, "lon": 110.306856}, {"stop_id": "HT_157", "stop_name": "Polsek Godean - A", "seq": 4, "lat": -7.771561, "lon": 110.30907}, {"stop_id": "HT_124", "stop_name": "Neutron Godean - A", "seq": 5, "lat": -7.771875, "lon": 110.310305}, {"stop_id": "HT_058", "stop_name": "Indomaret Klajuran - A", "seq": 6, "lat": -7.772253, "lon": 110.31175}, {"stop_id": "HT_219", "stop_name": "Simpang Gesikan - A", "seq": 7, "lat": -7.773567, "lon": 110.316446}, {"stop_id": "HT_226", "stop_name": "Simpang Munggur - A", "seq": 8, "lat": -7.77394, "lon": 110.318355}, {"stop_id": "HT_215", "stop_name": "Simpang Bantulan - A", "seq": 9, "lat": -7.774802, "lon": 110.322299}, {"stop_id": "HT_079", "stop_name": "Kantor Kal. Sidoarum - A", "seq": 10, "lat": -7.775581, "lon": 110.325369}, {"stop_id": "HT_253", "stop_name": "Toko Saerah - A", "seq": 11, "lat": -7.776179, "lon": 110.327786}, {"stop_id": "HT_117", "stop_name": "Metro Nogotirto - A", "seq": 12, "lat": -7.777692, "lon": 110.334364}, {"stop_id": "HT_086", "stop_name": "Kantor Pos Demak Ijo - A", "seq": 13, "lat": -7.778029, "lon": 110.335961}, {"stop_id": "HT_179", "stop_name": "SDN 1 Demak Ijo - A", "seq": 14, "lat": -7.778221, "lon": 110.336809}, {"stop_id": "HT_149", "stop_name": "Pasar Tlogorejo - A", "seq": 15, "lat": -7.778808, "lon": 110.339471}, {"stop_id": "HT_116", "stop_name": "McD", "seq": 16, "lat": -7.779392, "lon": 110.34209}, {"stop_id": "HT_118", "stop_name": "Mirota Godean - A", "seq": 17, "lat": -7.781082, "lon": 110.349717}, {"stop_id": "HT_006", "stop_name": "BKD - A", "seq": 18, "lat": -7.782465, "lon": 110.356194}, {"stop_id": "HT_144", "stop_name": "Pasar Pingit - A", "seq": 19, "lat": -7.782809, "lon": 110.358762}, {"stop_id": "HT_140", "stop_name": "Pasar Kranggan Selatan", "seq": 20, "lat": -7.782845, "lon": 110.365659}, {"stop_id": "HT_065", "stop_name": "Jend. Sudirman - A", "seq": 21, "lat": -7.782988, "lon": 110.36955}, {"stop_id": "HT_023", "stop_name": "Bulog", "seq": 22, "lat": -7.784968, "lon": 110.374708}, {"stop_id": "HT_096", "stop_name": "Kridosono", "seq": 23, "lat": -7.787321, "lon": 110.375367}, {"stop_id": "HT_040", "stop_name": "Eks Menara Kopi - A", "seq": 24, "lat": -7.789248, "lon": 110.370131}, {"stop_id": "HT_110", "stop_name": "Malioboro 1", "seq": 25, "lat": -7.790849, "lon": 110.366122}, {"stop_id": "HT_111", "stop_name": "Malioboro 2", "seq": 26, "lat": -7.795219, "lon": 110.365592}, {"stop_id": "HT_112", "stop_name": "Malioboro 3", "seq": 27, "lat": -7.7999, "lon": 110.364998}, {"stop_id": "HT_075", "stop_name": "KHA Dahlan - A", "seq": 28, "lat": -7.801281, "lon": 110.360133}, {"stop_id": "HT_125", "stop_name": "Ngabean", "seq": 29, "lat": -7.803719, "lon": 110.356236}, {"stop_id": "HT_147", "stop_name": "Pasar Serangan - A", "seq": 30, "lat": -7.801112, "lon": 110.354235}, {"stop_id": "HT_186", "stop_name": "SMAN 1 - A", "seq": 31, "lat": -7.799353, "lon": 110.352117}, {"stop_id": "HT_195", "stop_name": "SMPN 11", "seq": 32, "lat": -7.792973, "lon": 110.353401}, {"stop_id": "HT_118", "stop_name": "Mirota Godean - A", "seq": 33, "lat": -7.781082, "lon": 110.349717}, {"stop_id": "HT_029", "stop_name": "Dentes Godean", "seq": 34, "lat": -7.779783, "lon": 110.34374}, {"stop_id": "HT_149", "stop_name": "Pasar Tlogorejo - A", "seq": 35, "lat": -7.778808, "lon": 110.339471}, {"stop_id": "HT_179", "stop_name": "SDN 1 Demak Ijo - A", "seq": 36, "lat": -7.778221, "lon": 110.336809}, {"stop_id": "HT_086", "stop_name": "Kantor Pos Demak Ijo - A", "seq": 37, "lat": -7.778029, "lon": 110.335961}, {"stop_id": "HT_117", "stop_name": "Metro Nogotirto - A", "seq": 38, "lat": -7.777692, "lon": 110.334364}, {"stop_id": "HT_253", "stop_name": "Toko Saerah - A", "seq": 39, "lat": -7.776179, "lon": 110.327786}, {"stop_id": "HT_079", "stop_name": "Kantor Kal. Sidoarum - A", "seq": 40, "lat": -7.775581, "lon": 110.325369}, {"stop_id": "HT_215", "stop_name": "Simpang Bantulan - A", "seq": 41, "lat": -7.774802, "lon": 110.322299}, {"stop_id": "HT_226", "stop_name": "Simpang Munggur - A", "seq": 42, "lat": -7.77394, "lon": 110.318355}, {"stop_id": "HT_219", "stop_name": "Simpang Gesikan - A", "seq": 43, "lat": -7.773567, "lon": 110.316446}, {"stop_id": "HT_058", "stop_name": "Indomaret Klajuran - A", "seq": 44, "lat": -7.772253, "lon": 110.31175}, {"stop_id": "HT_124", "stop_name": "Neutron Godean - A", "seq": 45, "lat": -7.771875, "lon": 110.310305}, {"stop_id": "HT_157", "stop_name": "Polsek Godean - A", "seq": 46, "lat": -7.771561, "lon": 110.30907}, {"stop_id": "HT_092", "stop_name": "Koramil Godean - A", "seq": 47, "lat": -7.771013, "lon": 110.306856}, {"stop_id": "HT_225", "stop_name": "Simpang Mandungan (Iwak Kalen) - A", "seq": 48, "lat": -7.770049, "lon": 110.303015}, {"stop_id": "HT_083", "stop_name": "Kantor Kap. Godean - A", "seq": 49, "lat": -7.769368, "lon": 110.300242}, {"stop_id": "HT_164", "stop_name": "Pusat Kuliner Belut Godean", "seq": 50, "lat": -7.767618, "lon": 110.293516}]}, "14_0": {"route_id": "14", "direction_id": 0, "stops": [{"stop_id": "HT_012", "stop_name": "Bandara Adisujtipto", "seq": 0, "lat": -7.784497, "lon": 110.435712}, {"stop_id": "HT_076", "stop_name": "KKP Yogyakarta", "seq": 1, "lat": -7.782053, "lon": 110.429895}, {"stop_id": "HT_033", "stop_name": "Disnakertrans - A", "seq": 2, "lat": -7.769365, "lon": 110.431166}, {"stop_id": "HT_190", "stop_name": "SMKN 1 Depok - Jl. Raya Tajem - A", "seq": 3, "lat": -7.765242, "lon": 110.431485}, {"stop_id": "HT_180", "stop_name": "SDN 1 Depok - B", "seq": 4, "lat": -7.760914, "lon": 110.432945}, {"stop_id": "HT_078", "stop_name": "KUA Depok - A", "seq": 5, "lat": -7.755546, "lon": 110.433793}, {"stop_id": "HT_105", "stop_name": "MAN 2 Sleman - A", "seq": 6, "lat": -7.75038, "lon": 110.434549}, {"stop_id": "HT_259", "stop_name": "UNRIYO - A", "seq": 7, "lat": -7.74633, "lon": 110.434167}, {"stop_id": "HT_022", "stop_name": "Budi Mulia Dua - A", "seq": 8, "lat": -7.74294, "lon": 110.434193}, {"stop_id": "HT_059", "stop_name": "Indomaret Pokoh Sambiroto - A", "seq": 9, "lat": -7.735554, "lon": 110.434613}, {"stop_id": "HT_081", "stop_name": "Kantor Kal. Wedomartani - A", "seq": 10, "lat": -7.7315, "lon": 110.434826}, {"stop_id": "HT_214", "stop_name": "Simpang Babadan - A", "seq": 11, "lat": -7.723146, "lon": 110.435469}, {"stop_id": "HT_228", "stop_name": "Simpang Selomartani - A", "seq": 12, "lat": -7.722328, "lon": 110.438107}, {"stop_id": "HT_221", "stop_name": "Simpang Kabunan - A", "seq": 13, "lat": -7.71859, "lon": 110.438559}, {"stop_id": "HT_067", "stop_name": "Jl. Raya Kabunan - A", "seq": 14, "lat": -7.713204, "lon": 110.442836}, {"stop_id": "HT_172", "stop_name": "RS Kemasan - A", "seq": 15, "lat": -7.713281, "lon": 110.448042}, {"stop_id": "HT_223", "stop_name": "Simpang Kenti - A", "seq": 16, "lat": -7.703531, "lon": 110.448079}, {"stop_id": "HT_136", "stop_name": "Pasar Jangkang - A", "seq": 17, "lat": -7.702111, "lon": 110.447333}, {"stop_id": "HT_166", "stop_name": "Puskesmas Ngemplak - A", "seq": 18, "lat": -7.702928, "lon": 110.444678}, {"stop_id": "HT_255", "stop_name": "Tugu Batas Desa Yapah - A", "seq": 19, "lat": -7.703803, "lon": 110.442614}, {"stop_id": "HT_252", "stop_name": "Timur Jembatan Yapah - A", "seq": 20, "lat": -7.705049, "lon": 110.43919}, {"stop_id": "HT_187", "stop_name": "SMAN 2 Ngaglik - A", "seq": 21, "lat": -7.704858, "lon": 110.43501}, {"stop_id": "HT_224", "stop_name": "Simpang Losari - A", "seq": 22, "lat": -7.704851, "lon": 110.433006}, {"stop_id": "HT_203", "stop_name": "SPBU Mindi - A", "seq": 23, "lat": -7.704862, "lon": 110.431029}, {"stop_id": "HT_099", "stop_name": "Lap. Klidon - A", "seq": 24, "lat": -7.704223, "lon": 110.426571}, {"stop_id": "HT_080", "stop_name": "Kantor Kal. Sukoharjo - A", "seq": 25, "lat": -7.703843, "lon": 110.425108}, {"stop_id": "HT_182", "stop_name": "SDN Selomulyo - A", "seq": 26, "lat": -7.702391, "lon": 110.420716}, {"stop_id": "HT_176", "stop_name": "RSU Gramedika - A", "seq": 27, "lat": -7.70113, "lon": 110.416987}, {"stop_id": "HT_216", "stop_name": "Simpang Besi Jakal - A", "seq": 28, "lat": -7.70021, "lon": 110.415388}, {"stop_id": "HT_273", "stop_name": "YAKKUM - A", "seq": 29, "lat": -7.695592, "lon": 110.418017}, {"stop_id": "HT_021", "stop_name": "Boulevard UII", "seq": 30, "lat": -7.687506, "lon": 110.417273}, {"stop_id": "HT_021", "stop_name": "Boulevard UII", "seq": 31, "lat": -7.687506, "lon": 110.417273}, {"stop_id": "HT_217", "stop_name": "Simpang Degolan - A", "seq": 32, "lat": -7.684067, "lon": 110.419171}, {"stop_id": "HT_177", "stop_name": "Raminten - A", "seq": 33, "lat": -7.675976, "lon": 110.417261}, {"stop_id": "HT_036", "stop_name": "Dusun Kledokan - A", "seq": 34, "lat": -7.672637, "lon": 110.417366}, {"stop_id": "HT_173", "stop_name": "RS Panti Nugroho", "seq": 35, "lat": -7.669267, "lon": 110.417594}, {"stop_id": "HT_248", "stop_name": "Terminal Pakem", "seq": 36, "lat": -7.666865, "lon": 110.419988}, {"stop_id": "HT_181", "stop_name": "SDN Percobaan 3 Pakem", "seq": 37, "lat": -7.668404, "lon": 110.417696}, {"stop_id": "HT_199", "stop_name": "SMPN 4 Pakem", "seq": 38, "lat": -7.669215, "lon": 110.417642}, {"stop_id": "HT_036", "stop_name": "Dusun Kledokan - A", "seq": 39, "lat": -7.672637, "lon": 110.417366}, {"stop_id": "HT_177", "stop_name": "Raminten - A", "seq": 40, "lat": -7.675976, "lon": 110.417261}, {"stop_id": "HT_217", "stop_name": "Simpang Degolan - A", "seq": 41, "lat": -7.684067, "lon": 110.419171}, {"stop_id": "HT_021", "stop_name": "Boulevard UII", "seq": 42, "lat": -7.687506, "lon": 110.417273}, {"stop_id": "HT_021", "stop_name": "Boulevard UII", "seq": 43, "lat": -7.687506, "lon": 110.417273}, {"stop_id": "HT_273", "stop_name": "YAKKUM - A", "seq": 44, "lat": -7.695592, "lon": 110.418017}, {"stop_id": "HT_216", "stop_name": "Simpang Besi Jakal - A", "seq": 45, "lat": -7.70021, "lon": 110.415388}, {"stop_id": "HT_176", "stop_name": "RSU Gramedika - A", "seq": 46, "lat": -7.70113, "lon": 110.416987}, {"stop_id": "HT_182", "stop_name": "SDN Selomulyo - A", "seq": 47, "lat": -7.702391, "lon": 110.420716}, {"stop_id": "HT_080", "stop_name": "Kantor Kal. Sukoharjo - A", "seq": 48, "lat": -7.703843, "lon": 110.425108}, {"stop_id": "HT_099", "stop_name": "Lap. Klidon - A", "seq": 49, "lat": -7.704223, "lon": 110.426571}, {"stop_id": "HT_203", "stop_name": "SPBU Mindi - A", "seq": 50, "lat": -7.704862, "lon": 110.431029}, {"stop_id": "HT_224", "stop_name": "Simpang Losari - A", "seq": 51, "lat": -7.704851, "lon": 110.433006}, {"stop_id": "HT_187", "stop_name": "SMAN 2 Ngaglik - A", "seq": 52, "lat": -7.704858, "lon": 110.43501}, {"stop_id": "HT_252", "stop_name": "Timur Jembatan Yapah - A", "seq": 53, "lat": -7.705049, "lon": 110.43919}, {"stop_id": "HT_255", "stop_name": "Tugu Batas Desa Yapah - A", "seq": 54, "lat": -7.703803, "lon": 110.442614}, {"stop_id": "HT_166", "stop_name": "Puskesmas Ngemplak - A", "seq": 55, "lat": -7.702928, "lon": 110.444678}, {"stop_id": "HT_136", "stop_name": "Pasar Jangkang - A", "seq": 56, "lat": -7.702111, "lon": 110.447333}]}, "15_0": {"route_id": "15", "direction_id": 0, "stops": [{"stop_id": "HT_220", "stop_name": "Simpang Gose - A", "seq": 0, "lat": -7.891818, "lon": 110.325388}, {"stop_id": "HT_254", "stop_name": "Tugu Adipura", "seq": 1, "lat": -7.889221, "lon": 110.327038}, {"stop_id": "HT_133", "stop_name": "Pasar Bantul - A", "seq": 2, "lat": -7.885246, "lon": 110.331045}, {"stop_id": "HT_009", "stop_name": "BRI Bantul", "seq": 3, "lat": -7.88199, "lon": 110.332318}, {"stop_id": "HT_097", "stop_name": "Lap. Karang - A", "seq": 4, "lat": -7.822379, "lon": 110.39653}, {"stop_id": "HT_223", "stop_name": "Simpang Kenti - A", "seq": 5, "lat": -7.703531, "lon": 110.448079}, {"stop_id": "HT_085", "stop_name": "Kantor Kesbangpol - A", "seq": 6, "lat": -7.856324, "lon": 110.341402}, {"stop_id": "HT_222", "stop_name": "Simpang Kasongan - A", "seq": 7, "lat": -7.846332, "lon": 110.344539}, {"stop_id": "HT_142", "stop_name": "Pasar Niten - A", "seq": 8, "lat": -7.838792, "lon": 110.350526}, {"stop_id": "HT_034", "stop_name": "Dongkelan - A", "seq": 9, "lat": -7.830195, "lon": 110.353801}, {"stop_id": "HT_150", "stop_name": "Pasty - A", "seq": 10, "lat": -7.825689, "lon": 110.354483}, {"stop_id": "HT_035", "stop_name": "Dukuh - A", "seq": 11, "lat": -7.821686, "lon": 110.355174}, {"stop_id": "HT_049", "stop_name": "Gereja Pugeran - A", "seq": 12, "lat": -7.816599, "lon": 110.355899}, {"stop_id": "HT_240", "stop_name": "Tamansari", "seq": 13, "lat": -7.809838, "lon": 110.356008}, {"stop_id": "HT_075", "stop_name": "KHA Dahlan - A", "seq": 14, "lat": -7.801281, "lon": 110.360133}, {"stop_id": "HT_213", "stop_name": "Senopati", "seq": 15, "lat": -7.801501, "lon": 110.367038}, {"stop_id": "HT_235", "stop_name": "Suryotomo", "seq": 16, "lat": -7.79926, "lon": 110.369312}, {"stop_id": "HT_110", "stop_name": "Malioboro 1", "seq": 17, "lat": -7.790849, "lon": 110.366122}, {"stop_id": "HT_110", "stop_name": "Malioboro 1", "seq": 18, "lat": -7.790849, "lon": 110.366122}, {"stop_id": "HT_111", "stop_name": "Malioboro 2", "seq": 19, "lat": -7.795219, "lon": 110.365592}, {"stop_id": "HT_112", "stop_name": "Malioboro 3", "seq": 20, "lat": -7.7999, "lon": 110.364998}, {"stop_id": "HT_075", "stop_name": "KHA Dahlan - A", "seq": 21, "lat": -7.801281, "lon": 110.360133}, {"stop_id": "HT_125", "stop_name": "Ngabean", "seq": 22, "lat": -7.803719, "lon": 110.356236}, {"stop_id": "HT_049", "stop_name": "Gereja Pugeran - A", "seq": 23, "lat": -7.816599, "lon": 110.355899}, {"stop_id": "HT_035", "stop_name": "Dukuh - A", "seq": 24, "lat": -7.821686, "lon": 110.355174}, {"stop_id": "HT_150", "stop_name": "Pasty - A", "seq": 25, "lat": -7.825689, "lon": 110.354483}, {"stop_id": "HT_034", "stop_name": "Dongkelan - A", "seq": 26, "lat": -7.830195, "lon": 110.353801}, {"stop_id": "HT_142", "stop_name": "Pasar Niten - A", "seq": 27, "lat": -7.838792, "lon": 110.350526}, {"stop_id": "HT_222", "stop_name": "Simpang Kasongan - A", "seq": 28, "lat": -7.846332, "lon": 110.344539}, {"stop_id": "HT_085", "stop_name": "Kantor Kesbangpol - A", "seq": 29, "lat": -7.856324, "lon": 110.341402}, {"stop_id": "HT_223", "stop_name": "Simpang Kenti - A", "seq": 30, "lat": -7.703531, "lon": 110.448079}, {"stop_id": "HT_197", "stop_name": "SMPN 2 Bantul - A", "seq": 31, "lat": -7.874332, "lon": 110.335823}, {"stop_id": "HT_082", "stop_name": "Kantor Kap. Bantul", "seq": 32, "lat": -7.883543, "lon": 110.331834}, {"stop_id": "HT_133", "stop_name": "Pasar Bantul - A", "seq": 33, "lat": -7.885246, "lon": 110.331045}, {"stop_id": "HT_041", "stop_name": "Eks Stasiun Bantul", "seq": 34, "lat": -7.887393, "lon": 110.329321}, {"stop_id": "HT_254", "stop_name": "Tugu Adipura", "seq": 35, "lat": -7.889221, "lon": 110.327038}, {"stop_id": "HT_220", "stop_name": "Simpang Gose - A", "seq": 36, "lat": -7.891818, "lon": 110.325388}, {"stop_id": "HT_249", "stop_name": "Terminal Palbapang", "seq": 37, "lat": -7.905322, "lon": 110.318426}]}, "1A_0": {"route_id": "1A", "direction_id": 0, "stops": [{"stop_id": "HT_077", "stop_name": "KR - A", "seq": 0, "lat": -7.781692, "lon": 110.450503}, {"stop_id": "HT_138", "stop_name": "Pasar Kalasan - A", "seq": 1, "lat": -7.769382, "lon": 110.469632}, {"stop_id": "HT_016", "stop_name": "Bhayangkara", "seq": 2, "lat": -7.799309, "lon": 110.362097}, {"stop_id": "HT_079", "stop_name": "Kantor Kal. Sidoarum - A", "seq": 3, "lat": -7.775581, "lon": 110.325369}, {"stop_id": "HT_250", "stop_name": "Terminal Prambanan", "seq": 4, "lat": -7.755659, "lon": 110.489817}, {"stop_id": "HT_037", "stop_name": "Edotel Kalasan - A", "seq": 5, "lat": -7.756754, "lon": 110.482651}, {"stop_id": "HT_137", "stop_name": "Pasar Kalasan -  B", "seq": 6, "lat": -7.769913, "lon": 110.468993}, {"stop_id": "HT_077", "stop_name": "KR - A", "seq": 7, "lat": -7.781692, "lon": 110.450503}, {"stop_id": "HT_056", "stop_name": "Hyundai", "seq": 8, "lat": -7.783518, "lon": 110.428348}, {"stop_id": "HT_064", "stop_name": "Jayakarta", "seq": 9, "lat": -7.783404, "lon": 110.419409}, {"stop_id": "HT_062", "stop_name": "Janti Selatan", "seq": 10, "lat": -7.785772, "lon": 110.410482}, {"stop_id": "HT_071", "stop_name": "Jogjatronik", "seq": 11, "lat": -7.806218, "lon": 110.369302}, {"stop_id": "HT_047", "stop_name": "Gedung Wanita", "seq": 12, "lat": -7.783187, "lon": 110.39271}, {"stop_id": "HT_234", "stop_name": "Superindo Urip Sumoharjo", "seq": 13, "lat": -7.783094, "lon": 110.382333}, {"stop_id": "HT_234", "stop_name": "Superindo Urip Sumoharjo", "seq": 14, "lat": -7.783094, "lon": 110.382333}, {"stop_id": "HT_168", "stop_name": "RS Bethesda", "seq": 15, "lat": -7.783037, "lon": 110.378017}, {"stop_id": "HT_065", "stop_name": "Jend. Sudirman - A", "seq": 16, "lat": -7.782988, "lon": 110.36955}, {"stop_id": "HT_114", "stop_name": "Mangkubumi 1", "seq": 17, "lat": -7.784763, "lon": 110.366863}, {"stop_id": "HT_115", "stop_name": "Mangkubumi 2", "seq": 18, "lat": -7.787674, "lon": 110.3665}, {"stop_id": "HT_110", "stop_name": "Malioboro 1", "seq": 19, "lat": -7.790849, "lon": 110.366122}, {"stop_id": "HT_111", "stop_name": "Malioboro 2", "seq": 20, "lat": -7.795219, "lon": 110.365592}, {"stop_id": "HT_112", "stop_name": "Malioboro 3", "seq": 21, "lat": -7.7999, "lon": 110.364998}, {"stop_id": "HT_213", "stop_name": "Senopati", "seq": 22, "lat": -7.801501, "lon": 110.367038}, {"stop_id": "HT_129", "stop_name": "Pakualaman", "seq": 23, "lat": -7.801649, "lon": 110.375769}, {"stop_id": "HT_047", "stop_name": "Gedung Wanita", "seq": 24, "lat": -7.783187, "lon": 110.39271}, {"stop_id": "HT_183", "stop_name": "SGM Kusumanegara - A", "seq": 25, "lat": -7.802084, "lon": 110.393031}, {"stop_id": "HT_183", "stop_name": "SGM Kusumanegara - A", "seq": 26, "lat": -7.802084, "lon": 110.393031}, {"stop_id": "HT_061", "stop_name": "JEC", "seq": 27, "lat": -7.798586, "lon": 110.402922}, {"stop_id": "HT_019", "stop_name": "Blok O", "seq": 28, "lat": -7.797242, "lon": 110.409909}, {"stop_id": "HT_063", "stop_name": "Janti Utara", "seq": 29, "lat": -7.783211, "lon": 110.411672}, {"stop_id": "HT_077", "stop_name": "KR - A", "seq": 30, "lat": -7.781692, "lon": 110.450503}, {"stop_id": "HT_012", "stop_name": "Bandara Adisujtipto", "seq": 31, "lat": -7.784497, "lon": 110.435712}]}, "1B_0": {"route_id": "1B", "direction_id": 0, "stops": [{"stop_id": "HT_064", "stop_name": "Jayakarta", "seq": 0, "lat": -7.783404, "lon": 110.419409}, {"stop_id": "HT_207", "stop_name": "Sahid J-Walk", "seq": 1, "lat": -7.779567, "lon": 110.414697}, {"stop_id": "HT_010", "stop_name": "Babarsari - A", "seq": 2, "lat": -7.77397, "lon": 110.412218}, {"stop_id": "HT_010", "stop_name": "Babarsari - A", "seq": 3, "lat": -7.77397, "lon": 110.412218}, {"stop_id": "HT_169", "stop_name": "RS Hardjolukito", "seq": 4, "lat": -7.797367, "lon": 110.41002}, {"stop_id": "HT_272", "stop_name": "Wonocatur", "seq": 5, "lat": -7.798619, "lon": 110.406405}, {"stop_id": "HT_007", "stop_name": "BKPM", "seq": 6, "lat": -7.800372, "lon": 110.40235}, {"stop_id": "HT_048", "stop_name": "Gembira Loka - A", "seq": 7, "lat": -7.802259, "lon": 110.399966}, {"stop_id": "HT_183", "stop_name": "SGM Kusumanegara - A", "seq": 8, "lat": -7.802084, "lon": 110.393031}, {"stop_id": "HT_064", "stop_name": "Jayakarta", "seq": 9, "lat": -7.783404, "lon": 110.419409}, {"stop_id": "HT_183", "stop_name": "SGM Kusumanegara - A", "seq": 10, "lat": -7.802084, "lon": 110.393031}, {"stop_id": "HT_122", "stop_name": "Museum Biologi", "seq": 11, "lat": -7.801629, "lon": 110.37415}, {"stop_id": "HT_213", "stop_name": "Senopati", "seq": 12, "lat": -7.801501, "lon": 110.367038}, {"stop_id": "HT_016", "stop_name": "Bhayangkara", "seq": 13, "lat": -7.799309, "lon": 110.362097}, {"stop_id": "HT_143", "stop_name": "Pasar Pathuk", "seq": 14, "lat": -7.795994, "lon": 110.361866}, {"stop_id": "HT_271", "stop_name": "Wojo (Randubelang) - A", "seq": 15, "lat": -7.831416, "lon": 110.373919}, {"stop_id": "HT_069", "stop_name": "Jlagran", "seq": 16, "lat": -7.789467, "lon": 110.358868}, {"stop_id": "HT_209", "stop_name": "Samsat", "seq": 17, "lat": -7.787165, "lon": 110.359764}, {"stop_id": "HT_194", "stop_name": "SMPN 1 - A", "seq": 18, "lat": -7.777468, "lon": 110.375811}, {"stop_id": "HT_219", "stop_name": "Simpang Gesikan - A", "seq": 19, "lat": -7.773567, "lon": 110.316446}, {"stop_id": "HT_024", "stop_name": "Cik Di Tiro", "seq": 20, "lat": -7.782357, "lon": 110.375104}, {"stop_id": "HT_194", "stop_name": "SMPN 1 - A", "seq": 21, "lat": -7.777468, "lon": 110.375811}, {"stop_id": "HT_093", "stop_name": "Kosudgama", "seq": 22, "lat": -7.77617, "lon": 110.37861}, {"stop_id": "HT_261", "stop_name": "UNY Colombo", "seq": 23, "lat": -7.777757, "lon": 110.386689}, {"stop_id": "HT_167", "stop_name": "RRI Gejayan", "seq": 24, "lat": -7.779508, "lon": 110.388322}, {"stop_id": "HT_211", "stop_name": "Santren", "seq": 25, "lat": -7.766374, "lon": 110.391976}, {"stop_id": "HT_245", "stop_name": "Terminal Condongcatur", "seq": 26, "lat": -7.756625, "lon": 110.395875}, {"stop_id": "HT_211", "stop_name": "Santren", "seq": 27, "lat": -7.766374, "lon": 110.391976}, {"stop_id": "HT_210", "stop_name": "Sanata Dharma", "seq": 28, "lat": -7.775083, "lon": 110.389249}, {"stop_id": "HT_028", "stop_name": "Demangan", "seq": 29, "lat": -7.783048, "lon": 110.388672}, {"stop_id": "HT_026", "stop_name": "De Britto", "seq": 30, "lat": -7.783094, "lon": 110.393893}, {"stop_id": "HT_003", "stop_name": "Ambarukmo - A", "seq": 31, "lat": -7.783292, "lon": 110.401786}, {"stop_id": "HT_062", "stop_name": "Janti Selatan", "seq": 32, "lat": -7.785772, "lon": 110.410482}, {"stop_id": "HT_063", "stop_name": "Janti Utara", "seq": 33, "lat": -7.783211, "lon": 110.411672}, {"stop_id": "HT_068", "stop_name": "Jl. Suroto", "seq": 34, "lat": -7.784524, "lon": 110.374671}, {"stop_id": "HT_012", "stop_name": "Bandara Adisujtipto", "seq": 35, "lat": -7.784497, "lon": 110.435712}]}, "2A_0": {"route_id": "2A", "direction_id": 0, "stops": [{"stop_id": "HT_119", "stop_name": "Monjali - A", "seq": 0, "lat": -7.750564, "lon": 110.367625}, {"stop_id": "HT_247", "stop_name": "Terminal Jombor", "seq": 1, "lat": -7.747405, "lon": 110.361238}, {"stop_id": "HT_119", "stop_name": "Monjali - A", "seq": 2, "lat": -7.750564, "lon": 110.367625}, {"stop_id": "HT_119", "stop_name": "Monjali - A", "seq": 3, "lat": -7.750564, "lon": 110.367625}, {"stop_id": "HT_087", "stop_name": "Karangjati - A", "seq": 4, "lat": -7.764031, "lon": 110.369243}, {"stop_id": "HT_001", "stop_name": "AM Sangaji - A", "seq": 5, "lat": -7.775812, "lon": 110.367982}, {"stop_id": "HT_077", "stop_name": "KR - A", "seq": 6, "lat": -7.781692, "lon": 110.450503}, {"stop_id": "HT_114", "stop_name": "Mangkubumi 1", "seq": 7, "lat": -7.784763, "lon": 110.366863}, {"stop_id": "HT_115", "stop_name": "Mangkubumi 2", "seq": 8, "lat": -7.787674, "lon": 110.3665}, {"stop_id": "HT_110", "stop_name": "Malioboro 1", "seq": 9, "lat": -7.790849, "lon": 110.366122}, {"stop_id": "HT_111", "stop_name": "Malioboro 2", "seq": 10, "lat": -7.795219, "lon": 110.365592}, {"stop_id": "HT_112", "stop_name": "Malioboro 3", "seq": 11, "lat": -7.7999, "lon": 110.364998}, {"stop_id": "HT_213", "stop_name": "Senopati", "seq": 12, "lat": -7.801501, "lon": 110.367038}, {"stop_id": "HT_089", "stop_name": "Katamso", "seq": 13, "lat": -7.802722, "lon": 110.369215}, {"stop_id": "HT_162", "stop_name": "Pujokusuman", "seq": 14, "lat": -7.814821, "lon": 110.37006}, {"stop_id": "HT_205", "stop_name": "STIE Kerjasama", "seq": 15, "lat": -7.816663, "lon": 110.382853}, {"stop_id": "HT_170", "stop_name": "RS Hidayatullah", "seq": 16, "lat": -7.815604, "lon": 110.387793}, {"stop_id": "HT_045", "stop_name": "Gambiran - A", "seq": 17, "lat": -7.816892, "lon": 110.391045}, {"stop_id": "HT_030", "stop_name": "Diklat PU", "seq": 18, "lat": -7.819036, "lon": 110.395116}, {"stop_id": "HT_201", "stop_name": "SMPN 9 - A", "seq": 19, "lat": -7.819796, "lon": 110.398023}, {"stop_id": "HT_154", "stop_name": "Plengkung Gading - A", "seq": 20, "lat": -7.814171, "lon": 110.363901}, {"stop_id": "HT_153", "stop_name": "Pilar", "seq": 21, "lat": -7.813484, "lon": 110.402084}, {"stop_id": "HT_013", "stop_name": "Banguntapan - A", "seq": 22, "lat": -7.807797, "lon": 110.402165}, {"stop_id": "HT_048", "stop_name": "Gembira Loka - A", "seq": 23, "lat": -7.802259, "lon": 110.399966}, {"stop_id": "HT_183", "stop_name": "SGM Kusumanegara - A", "seq": 24, "lat": -7.802084, "lon": 110.393031}, {"stop_id": "HT_064", "stop_name": "Jayakarta", "seq": 25, "lat": -7.783404, "lon": 110.419409}, {"stop_id": "HT_004", "stop_name": "Among Rogo - A", "seq": 26, "lat": -7.79846, "lon": 110.384818}, {"stop_id": "HT_077", "stop_name": "KR - A", "seq": 27, "lat": -7.781692, "lon": 110.450503}, {"stop_id": "HT_235", "stop_name": "Suryotomo", "seq": 28, "lat": -7.79926, "lon": 110.369312}, {"stop_id": "HT_038", "stop_name": "Eks Bioskop Mataram", "seq": 29, "lat": -7.79228, "lon": 110.377912}, {"stop_id": "HT_077", "stop_name": "KR - A", "seq": 30, "lat": -7.781692, "lon": 110.450503}, {"stop_id": "HT_168", "stop_name": "RS Bethesda", "seq": 31, "lat": -7.783037, "lon": 110.378017}, {"stop_id": "HT_024", "stop_name": "Cik Di Tiro", "seq": 32, "lat": -7.782357, "lon": 110.375104}, {"stop_id": "HT_194", "stop_name": "SMPN 1 - A", "seq": 33, "lat": -7.777468, "lon": 110.375811}, {"stop_id": "HT_093", "stop_name": "Kosudgama", "seq": 34, "lat": -7.77617, "lon": 110.37861}, {"stop_id": "HT_261", "stop_name": "UNY Colombo", "seq": 35, "lat": -7.777757, "lon": 110.386689}, {"stop_id": "HT_167", "stop_name": "RRI Gejayan", "seq": 36, "lat": -7.779508, "lon": 110.388322}, {"stop_id": "HT_211", "stop_name": "Santren", "seq": 37, "lat": -7.766374, "lon": 110.391976}, {"stop_id": "HT_167", "stop_name": "RRI Gejayan", "seq": 38, "lat": -7.779508, "lon": 110.388322}, {"stop_id": "HT_245", "stop_name": "Terminal Condongcatur", "seq": 39, "lat": -7.756625, "lon": 110.395875}]}, "2B_0": {"route_id": "2B", "direction_id": 0, "stops": [{"stop_id": "HT_210", "stop_name": "Sanata Dharma", "seq": 0, "lat": -7.775083, "lon": 110.389249}, {"stop_id": "HT_208", "stop_name": "Samirono", "seq": 1, "lat": -7.777646, "lon": 110.387512}, {"stop_id": "HT_174", "stop_name": "RS Panti Rapih", "seq": 2, "lat": -7.776251, "lon": 110.37822}, {"stop_id": "HT_194", "stop_name": "SMPN 1 - A", "seq": 3, "lat": -7.777468, "lon": 110.375811}, {"stop_id": "HT_024", "stop_name": "Cik Di Tiro", "seq": 4, "lat": -7.782357, "lon": 110.375104}, {"stop_id": "HT_077", "stop_name": "KR - A", "seq": 5, "lat": -7.781692, "lon": 110.450503}, {"stop_id": "HT_192", "stop_name": "SMP Kanisius Gayam - A", "seq": 6, "lat": -7.795822, "lon": 110.377749}, {"stop_id": "HT_077", "stop_name": "KR - A", "seq": 7, "lat": -7.781692, "lon": 110.450503}, {"stop_id": "HT_004", "stop_name": "Among Rogo - A", "seq": 8, "lat": -7.79846, "lon": 110.384818}, {"stop_id": "HT_183", "stop_name": "SGM Kusumanegara - A", "seq": 9, "lat": -7.802084, "lon": 110.393031}, {"stop_id": "HT_183", "stop_name": "SGM Kusumanegara - A", "seq": 10, "lat": -7.802084, "lon": 110.393031}, {"stop_id": "HT_013", "stop_name": "Banguntapan - A", "seq": 11, "lat": -7.807797, "lon": 110.402165}, {"stop_id": "HT_013", "stop_name": "Banguntapan - A", "seq": 12, "lat": -7.807797, "lon": 110.402165}, {"stop_id": "HT_235", "stop_name": "Suryotomo", "seq": 13, "lat": -7.79926, "lon": 110.369312}, {"stop_id": "HT_014", "stop_name": "Basen", "seq": 14, "lat": -7.819092, "lon": 110.395105}, {"stop_id": "HT_014", "stop_name": "Basen", "seq": 15, "lat": -7.819092, "lon": 110.395105}, {"stop_id": "HT_045", "stop_name": "Gambiran - A", "seq": 16, "lat": -7.816892, "lon": 110.391045}, {"stop_id": "HT_265", "stop_name": "Veteran", "seq": 17, "lat": -7.815228, "lon": 110.389139}, {"stop_id": "HT_150", "stop_name": "Pasty - A", "seq": 18, "lat": -7.825689, "lon": 110.354483}, {"stop_id": "HT_146", "stop_name": "Pasar Sepeda", "seq": 19, "lat": -7.816358, "lon": 110.380364}, {"stop_id": "HT_123", "stop_name": "Museum Perjuangan", "seq": 20, "lat": -7.815141, "lon": 110.371858}, {"stop_id": "HT_163", "stop_name": "Purawisata - A", "seq": 21, "lat": -7.80877, "lon": 110.369129}, {"stop_id": "HT_089", "stop_name": "Katamso", "seq": 22, "lat": -7.802722, "lon": 110.369215}, {"stop_id": "HT_213", "stop_name": "Senopati", "seq": 23, "lat": -7.801501, "lon": 110.367038}, {"stop_id": "HT_075", "stop_name": "KHA Dahlan - A", "seq": 24, "lat": -7.801281, "lon": 110.360133}, {"stop_id": "HT_125", "stop_name": "Ngabean", "seq": 25, "lat": -7.803719, "lon": 110.356236}, {"stop_id": "HT_147", "stop_name": "Pasar Serangan - A", "seq": 26, "lat": -7.801112, "lon": 110.354235}, {"stop_id": "HT_077", "stop_name": "KR - A", "seq": 27, "lat": -7.781692, "lon": 110.450503}, {"stop_id": "HT_194", "stop_name": "SMPN 1 - A", "seq": 28, "lat": -7.777468, "lon": 110.375811}, {"stop_id": "HT_209", "stop_name": "Samsat", "seq": 29, "lat": -7.787165, "lon": 110.359764}, {"stop_id": "HT_194", "stop_name": "SMPN 1 - A", "seq": 30, "lat": -7.777468, "lon": 110.375811}, {"stop_id": "HT_054", "stop_name": "Hotel Utara - A", "seq": 31, "lat": -7.780412, "lon": 110.360941}, {"stop_id": "HT_020", "stop_name": "Borobudur Plaza", "seq": 32, "lat": -7.778838, "lon": 110.362029}, {"stop_id": "HT_124", "stop_name": "Neutron Godean - A", "seq": 33, "lat": -7.771875, "lon": 110.310305}, {"stop_id": "HT_001", "stop_name": "AM Sangaji - A", "seq": 34, "lat": -7.775812, "lon": 110.367982}, {"stop_id": "HT_087", "stop_name": "Karangjati - A", "seq": 35, "lat": -7.764031, "lon": 110.369243}, {"stop_id": "HT_119", "stop_name": "Monjali - A", "seq": 36, "lat": -7.750564, "lon": 110.367625}, {"stop_id": "HT_247", "stop_name": "Terminal Jombor", "seq": 37, "lat": -7.747405, "lon": 110.361238}, {"stop_id": "HT_119", "stop_name": "Monjali - A", "seq": 38, "lat": -7.750564, "lon": 110.367625}, {"stop_id": "HT_090", "stop_name": "Kentungan", "seq": 39, "lat": -7.756098, "lon": 110.384626}, {"stop_id": "HT_245", "stop_name": "Terminal Condongcatur", "seq": 40, "lat": -7.756625, "lon": 110.395875}]}, "3A_0": {"route_id": "3A", "direction_id": 0, "stops": [{"stop_id": "HT_060", "stop_name": "Instiper - A", "seq": 0, "lat": -7.764459, "lon": 110.423632}, {"stop_id": "HT_156", "stop_name": "Polsek Depok Timur - A", "seq": 1, "lat": -7.762567, "lon": 110.415507}, {"stop_id": "HT_046", "stop_name": "Gardu PLN - A", "seq": 2, "lat": -7.739255, "lon": 110.392461}, {"stop_id": "HT_130", "stop_name": "Pakuwon Mall - A", "seq": 3, "lat": -7.758157, "lon": 110.399478}, {"stop_id": "HT_245", "stop_name": "Terminal Condongcatur", "seq": 4, "lat": -7.756625, "lon": 110.395875}, {"stop_id": "HT_113", "stop_name": "Manggung", "seq": 5, "lat": -7.758049, "lon": 110.386465}, {"stop_id": "HT_116", "stop_name": "McD", "seq": 6, "lat": -7.779392, "lon": 110.34209}, {"stop_id": "HT_018", "stop_name": "Biologi UGM", "seq": 7, "lat": -7.765289, "lon": 110.376905}, {"stop_id": "HT_042", "stop_name": "FKG UGM - A", "seq": 8, "lat": -7.771354, "lon": 110.375119}, {"stop_id": "HT_042", "stop_name": "FKG UGM - A", "seq": 9, "lat": -7.771354, "lon": 110.375119}, {"stop_id": "HT_091", "stop_name": "Kopma UGM", "seq": 10, "lat": -7.774326, "lon": 110.375122}, {"stop_id": "HT_194", "stop_name": "SMPN 1 - A", "seq": 11, "lat": -7.777468, "lon": 110.375811}, {"stop_id": "HT_024", "stop_name": "Cik Di Tiro", "seq": 12, "lat": -7.782357, "lon": 110.375104}, {"stop_id": "HT_077", "stop_name": "KR - A", "seq": 13, "lat": -7.781692, "lon": 110.450503}, {"stop_id": "HT_110", "stop_name": "Malioboro 1", "seq": 14, "lat": -7.790849, "lon": 110.366122}, {"stop_id": "HT_111", "stop_name": "Malioboro 2", "seq": 15, "lat": -7.795219, "lon": 110.365592}, {"stop_id": "HT_112", "stop_name": "Malioboro 3", "seq": 16, "lat": -7.7999, "lon": 110.364998}, {"stop_id": "HT_075", "stop_name": "KHA Dahlan - A", "seq": 17, "lat": -7.801281, "lon": 110.360133}, {"stop_id": "HT_125", "stop_name": "Ngabean", "seq": 18, "lat": -7.803719, "lon": 110.356236}, {"stop_id": "HT_073", "stop_name": "Jokteng Kulon", "seq": 19, "lat": -7.813247, "lon": 110.357346}, {"stop_id": "HT_154", "stop_name": "Plengkung Gading - A", "seq": 20, "lat": -7.814171, "lon": 110.363901}, {"stop_id": "HT_162", "stop_name": "Pujokusuman", "seq": 21, "lat": -7.814821, "lon": 110.37006}, {"stop_id": "HT_103", "stop_name": "Lowanu - A", "seq": 22, "lat": -7.81702, "lon": 110.376028}, {"stop_id": "HT_260", "stop_name": "UNU", "seq": 23, "lat": -7.819767, "lon": 110.376455}, {"stop_id": "HT_269", "stop_name": "Widya Wiwaha - A", "seq": 24, "lat": -7.822717, "lon": 110.377625}, {"stop_id": "HT_270", "stop_name": "Wirosaban", "seq": 25, "lat": -7.824776, "lon": 110.379247}, {"stop_id": "HT_243", "stop_name": "Tegal Turi - A", "seq": 26, "lat": -7.825394, "lon": 110.387097}, {"stop_id": "HT_050", "stop_name": "Gudang SGM - A", "seq": 27, "lat": -7.827155, "lon": 110.389979}, {"stop_id": "HT_135", "stop_name": "Pasar Giwangan - A", "seq": 28, "lat": -7.831511, "lon": 110.390009}, {"stop_id": "HT_246", "stop_name": "Terminal Giwangan", "seq": 29, "lat": -7.834176, "lon": 110.391835}, {"stop_id": "HT_135", "stop_name": "Pasar Giwangan - A", "seq": 30, "lat": -7.831511, "lon": 110.390009}, {"stop_id": "HT_050", "stop_name": "Gudang SGM - A", "seq": 31, "lat": -7.827155, "lon": 110.389979}, {"stop_id": "HT_242", "stop_name": "Tegal Gendu - A", "seq": 32, "lat": -7.826047, "lon": 110.391763}, {"stop_id": "HT_097", "stop_name": "Lap. Karang - A", "seq": 33, "lat": -7.822379, "lon": 110.39653}, {"stop_id": "HT_185", "stop_name": "SMA N 5", "seq": 34, "lat": -7.822557, "lon": 110.399158}, {"stop_id": "HT_154", "stop_name": "Plengkung Gading - A", "seq": 35, "lat": -7.814171, "lon": 110.363901}, {"stop_id": "HT_153", "stop_name": "Pilar", "seq": 36, "lat": -7.813484, "lon": 110.402084}, {"stop_id": "HT_013", "stop_name": "Banguntapan - A", "seq": 37, "lat": -7.807797, "lon": 110.402165}, {"stop_id": "HT_154", "stop_name": "Plengkung Gading - A", "seq": 38, "lat": -7.814171, "lon": 110.363901}, {"stop_id": "HT_019", "stop_name": "Blok O", "seq": 39, "lat": -7.797242, "lon": 110.409909}, {"stop_id": "HT_063", "stop_name": "Janti Utara", "seq": 40, "lat": -7.783211, "lon": 110.411672}, {"stop_id": "HT_068", "stop_name": "Jl. Suroto", "seq": 41, "lat": -7.784524, "lon": 110.374671}, {"stop_id": "HT_212", "stop_name": "Selokan Mataram Maguwo", "seq": 42, "lat": -7.77096, "lon": 110.431043}, {"stop_id": "HT_012", "stop_name": "Bandara Adisujtipto", "seq": 43, "lat": -7.784497, "lon": 110.435712}]}, "3B_0": {"route_id": "3B", "direction_id": 0, "stops": [{"stop_id": "HT_050", "stop_name": "Gudang SGM - A", "seq": 0, "lat": -7.827155, "lon": 110.389979}, {"stop_id": "HT_243", "stop_name": "Tegal Turi - A", "seq": 1, "lat": -7.825394, "lon": 110.387097}, {"stop_id": "HT_126", "stop_name": "Nitikan", "seq": 2, "lat": -7.824797, "lon": 110.379983}, {"stop_id": "HT_269", "stop_name": "Widya Wiwaha - A", "seq": 3, "lat": -7.822717, "lon": 110.377625}, {"stop_id": "HT_103", "stop_name": "Lowanu - A", "seq": 4, "lat": -7.81702, "lon": 110.376028}, {"stop_id": "HT_123", "stop_name": "Museum Perjuangan", "seq": 5, "lat": -7.815141, "lon": 110.371858}, {"stop_id": "HT_074", "stop_name": "Jokteng Wetan", "seq": 6, "lat": -7.814656, "lon": 110.367221}, {"stop_id": "HT_134", "stop_name": "Pasar Gamping - A", "seq": 7, "lat": -7.800627, "lon": 110.323811}, {"stop_id": "HT_188", "stop_name": "SMAN 7", "seq": 8, "lat": -7.813417, "lon": 110.358131}, {"stop_id": "HT_240", "stop_name": "Tamansari", "seq": 9, "lat": -7.809838, "lon": 110.356008}, {"stop_id": "HT_125", "stop_name": "Ngabean", "seq": 10, "lat": -7.803719, "lon": 110.356236}, {"stop_id": "HT_075", "stop_name": "KHA Dahlan - A", "seq": 11, "lat": -7.801281, "lon": 110.360133}, {"stop_id": "HT_016", "stop_name": "Bhayangkara", "seq": 12, "lat": -7.799309, "lon": 110.362097}, {"stop_id": "HT_143", "stop_name": "Pasar Pathuk", "seq": 13, "lat": -7.795994, "lon": 110.361866}, {"stop_id": "HT_271", "stop_name": "Wojo (Randubelang) - A", "seq": 14, "lat": -7.831416, "lon": 110.373919}, {"stop_id": "HT_069", "stop_name": "Jlagran", "seq": 15, "lat": -7.789467, "lon": 110.358868}, {"stop_id": "HT_209", "stop_name": "Samsat", "seq": 16, "lat": -7.787165, "lon": 110.359764}, {"stop_id": "HT_194", "stop_name": "SMPN 1 - A", "seq": 17, "lat": -7.777468, "lon": 110.375811}, {"stop_id": "HT_219", "stop_name": "Simpang Gesikan - A", "seq": 18, "lat": -7.773567, "lon": 110.316446}, {"stop_id": "HT_024", "stop_name": "Cik Di Tiro", "seq": 19, "lat": -7.782357, "lon": 110.375104}, {"stop_id": "HT_194", "stop_name": "SMPN 1 - A", "seq": 20, "lat": -7.777468, "lon": 110.375811}, {"stop_id": "HT_266", "stop_name": "Vokasi UGM", "seq": 21, "lat": -7.774525, "lon": 110.374977}, {"stop_id": "HT_042", "stop_name": "FKG UGM - A", "seq": 22, "lat": -7.771354, "lon": 110.375119}, {"stop_id": "HT_175", "stop_name": "RS Sardjito - A", "seq": 23, "lat": -7.767817, "lon": 110.374276}, {"stop_id": "HT_106", "stop_name": "MM UGM", "seq": 24, "lat": -7.76502, "lon": 110.377002}, {"stop_id": "HT_055", "stop_name": "Hotel Vidi", "seq": 25, "lat": -7.761786, "lon": 110.380208}, {"stop_id": "HT_090", "stop_name": "Kentungan", "seq": 26, "lat": -7.756098, "lon": 110.384626}, {"stop_id": "HT_245", "stop_name": "Terminal Condongcatur", "seq": 27, "lat": -7.756625, "lon": 110.395875}, {"stop_id": "HT_241", "stop_name": "Tarumartani - A", "seq": 28, "lat": -7.790501, "lon": 110.381988}, {"stop_id": "HT_171", "stop_name": "RS JIH", "seq": 29, "lat": -7.758875, "lon": 110.403075}, {"stop_id": "HT_232", "stop_name": "Stikes Guna Bangsa", "seq": 30, "lat": -7.760772, "lon": 110.408957}, {"stop_id": "HT_077", "stop_name": "KR - A", "seq": 31, "lat": -7.781692, "lon": 110.450503}, {"stop_id": "HT_060", "stop_name": "Instiper - A", "seq": 32, "lat": -7.764459, "lon": 110.423632}, {"stop_id": "HT_077", "stop_name": "KR - A", "seq": 33, "lat": -7.781692, "lon": 110.450503}, {"stop_id": "HT_017", "stop_name": "Binamarga", "seq": 34, "lat": -7.774443, "lon": 110.430699}, {"stop_id": "HT_212", "stop_name": "Selokan Mataram Maguwo", "seq": 35, "lat": -7.77096, "lon": 110.431043}, {"stop_id": "HT_012", "stop_name": "Bandara Adisujtipto", "seq": 36, "lat": -7.784497, "lon": 110.435712}, {"stop_id": "HT_056", "stop_name": "Hyundai", "seq": 37, "lat": -7.783518, "lon": 110.428348}, {"stop_id": "HT_064", "stop_name": "Jayakarta", "seq": 38, "lat": -7.783404, "lon": 110.419409}, {"stop_id": "HT_169", "stop_name": "RS Hardjolukito", "seq": 39, "lat": -7.797367, "lon": 110.41002}, {"stop_id": "HT_272", "stop_name": "Wonocatur", "seq": 40, "lat": -7.798619, "lon": 110.406405}, {"stop_id": "HT_007", "stop_name": "BKPM", "seq": 41, "lat": -7.800372, "lon": 110.40235}, {"stop_id": "HT_013", "stop_name": "Banguntapan - A", "seq": 42, "lat": -7.807797, "lon": 110.402165}, {"stop_id": "HT_013", "stop_name": "Banguntapan - A", "seq": 43, "lat": -7.807797, "lon": 110.402165}, {"stop_id": "HT_235", "stop_name": "Suryotomo", "seq": 44, "lat": -7.79926, "lon": 110.369312}, {"stop_id": "HT_151", "stop_name": "Pegadaian", "seq": 45, "lat": -7.822774, "lon": 110.400174}, {"stop_id": "HT_097", "stop_name": "Lap. Karang - A", "seq": 46, "lat": -7.822379, "lon": 110.39653}, {"stop_id": "HT_242", "stop_name": "Tegal Gendu - A", "seq": 47, "lat": -7.826047, "lon": 110.391763}, {"stop_id": "HT_050", "stop_name": "Gudang SGM - A", "seq": 48, "lat": -7.827155, "lon": 110.389979}, {"stop_id": "HT_135", "stop_name": "Pasar Giwangan - A", "seq": 49, "lat": -7.831511, "lon": 110.390009}, {"stop_id": "HT_246", "stop_name": "Terminal Giwangan", "seq": 50, "lat": -7.834176, "lon": 110.391835}]}, "4A_0": {"route_id": "4A", "direction_id": 0, "stops": [{"stop_id": "HT_246", "stop_name": "Terminal Giwangan", "seq": 0, "lat": -7.834176, "lon": 110.391835}, {"stop_id": "HT_135", "stop_name": "Pasar Giwangan - A", "seq": 1, "lat": -7.831511, "lon": 110.390009}, {"stop_id": "HT_050", "stop_name": "Gudang SGM - A", "seq": 2, "lat": -7.827155, "lon": 110.389979}, {"stop_id": "HT_108", "stop_name": "Makam Gajah - A", "seq": 3, "lat": -7.801959, "lon": 110.387464}, {"stop_id": "HT_159", "stop_name": "Pramuka", "seq": 4, "lat": -7.818518, "lon": 110.387374}, {"stop_id": "HT_146", "stop_name": "Pasar Sepeda", "seq": 5, "lat": -7.816358, "lon": 110.380364}, {"stop_id": "HT_127", "stop_name": "Nyutran Tamansiswa", "seq": 6, "lat": -7.810933, "lon": 110.376957}, {"stop_id": "HT_100", "stop_name": "Lapas Wirogunan - A", "seq": 7, "lat": -7.803958, "lon": 110.378249}, {"stop_id": "HT_145", "stop_name": "Pasar Sentul", "seq": 8, "lat": -7.801717, "lon": 110.37677}, {"stop_id": "HT_122", "stop_name": "Museum Biologi", "seq": 9, "lat": -7.801629, "lon": 110.37415}, {"stop_id": "HT_051", "stop_name": "Hayam Wuruk - A", "seq": 10, "lat": -7.795676, "lon": 110.37263}, {"stop_id": "HT_101", "stop_name": "Lempuyangan", "seq": 11, "lat": -7.790441, "lon": 110.373639}, {"stop_id": "HT_101", "stop_name": "Lempuyangan", "seq": 12, "lat": -7.790441, "lon": 110.373639}, {"stop_id": "HT_077", "stop_name": "KR - A", "seq": 13, "lat": -7.781692, "lon": 110.450503}, {"stop_id": "HT_257", "stop_name": "UKDW", "seq": 14, "lat": -7.785524, "lon": 110.378843}, {"stop_id": "HT_168", "stop_name": "RS Bethesda", "seq": 15, "lat": -7.783037, "lon": 110.378017}, {"stop_id": "HT_024", "stop_name": "Cik Di Tiro", "seq": 16, "lat": -7.782357, "lon": 110.375104}, {"stop_id": "HT_194", "stop_name": "SMPN 1 - A", "seq": 17, "lat": -7.777468, "lon": 110.375811}, {"stop_id": "HT_266", "stop_name": "Vokasi UGM", "seq": 18, "lat": -7.774525, "lon": 110.374977}, {"stop_id": "HT_042", "stop_name": "FKG UGM - A", "seq": 19, "lat": -7.771354, "lon": 110.375119}, {"stop_id": "HT_175", "stop_name": "RS Sardjito - A", "seq": 20, "lat": -7.767817, "lon": 110.374276}, {"stop_id": "HT_106", "stop_name": "MM UGM", "seq": 21, "lat": -7.76502, "lon": 110.377002}, {"stop_id": "HT_055", "stop_name": "Hotel Vidi", "seq": 22, "lat": -7.761786, "lon": 110.380208}, {"stop_id": "HT_052", "stop_name": "Hokben Jakal - A", "seq": 23, "lat": -7.757759, "lon": 110.381951}, {"stop_id": "HT_090", "stop_name": "Kentungan", "seq": 24, "lat": -7.756098, "lon": 110.384626}, {"stop_id": "HT_245", "stop_name": "Terminal Condongcatur", "seq": 25, "lat": -7.756625, "lon": 110.395875}, {"stop_id": "HT_202", "stop_name": "SPBU Concat - A", "seq": 26, "lat": -7.759985, "lon": 110.394935}, {"stop_id": "HT_160", "stop_name": "Prayan - A", "seq": 27, "lat": -7.763473, "lon": 110.393585}, {"stop_id": "HT_236", "stop_name": "Susteran Novisiat", "seq": 28, "lat": -7.76613, "lon": 110.392154}, {"stop_id": "HT_210", "stop_name": "Sanata Dharma", "seq": 29, "lat": -7.775083, "lon": 110.389249}, {"stop_id": "HT_028", "stop_name": "Demangan", "seq": 30, "lat": -7.783048, "lon": 110.388672}, {"stop_id": "HT_028", "stop_name": "Demangan", "seq": 31, "lat": -7.783048, "lon": 110.388672}, {"stop_id": "HT_026", "stop_name": "De Britto", "seq": 32, "lat": -7.783094, "lon": 110.393893}, {"stop_id": "HT_256", "stop_name": "UIN Sunan Kalijaga - A", "seq": 33, "lat": -7.786192, "lon": 110.394844}, {"stop_id": "HT_002", "stop_name": "APMD - A", "seq": 34, "lat": -7.791068, "lon": 110.393349}, {"stop_id": "HT_251", "stop_name": "Timoho - A", "seq": 35, "lat": -7.795313, "lon": 110.392821}, {"stop_id": "HT_191", "stop_name": "SMKN 5 - A", "seq": 36, "lat": -7.800357, "lon": 110.395063}, {"stop_id": "HT_183", "stop_name": "SGM Kusumanegara - A", "seq": 37, "lat": -7.802084, "lon": 110.393031}, {"stop_id": "HT_262", "stop_name": "UTY Glagahsari - A", "seq": 38, "lat": -7.805533, "lon": 110.388438}, {"stop_id": "HT_109", "stop_name": "Makam Prajurit", "seq": 39, "lat": -7.807423, "lon": 110.387956}, {"stop_id": "HT_150", "stop_name": "Pasty - A", "seq": 40, "lat": -7.825689, "lon": 110.354483}, {"stop_id": "HT_264", "stop_name": "Universitas Alma Ata", "seq": 41, "lat": -7.818408, "lon": 110.324131}, {"stop_id": "HT_050", "stop_name": "Gudang SGM - A", "seq": 42, "lat": -7.827155, "lon": 110.389979}, {"stop_id": "HT_135", "stop_name": "Pasar Giwangan - A", "seq": 43, "lat": -7.831511, "lon": 110.390009}, {"stop_id": "HT_246", "stop_name": "Terminal Giwangan", "seq": 44, "lat": -7.834176, "lon": 110.391835}]}, "4B_0": {"route_id": "4B", "direction_id": 0, "stops": [{"stop_id": "HT_050", "stop_name": "Gudang SGM - A", "seq": 0, "lat": -7.827155, "lon": 110.389979}, {"stop_id": "HT_108", "stop_name": "Makam Gajah - A", "seq": 1, "lat": -7.801959, "lon": 110.387464}, {"stop_id": "HT_159", "stop_name": "Pramuka", "seq": 2, "lat": -7.818518, "lon": 110.387374}, {"stop_id": "HT_131", "stop_name": "Pandeyan", "seq": 3, "lat": -7.815783, "lon": 110.386402}, {"stop_id": "HT_156", "stop_name": "Polsek Depok Timur - A", "seq": 4, "lat": -7.762567, "lon": 110.415507}, {"stop_id": "HT_183", "stop_name": "SGM Kusumanegara - A", "seq": 5, "lat": -7.802084, "lon": 110.393031}, {"stop_id": "HT_189", "stop_name": "SMK Seni - A", "seq": 6, "lat": -7.814457, "lon": 110.34899}, {"stop_id": "HT_002", "stop_name": "APMD - A", "seq": 7, "lat": -7.791068, "lon": 110.393349}, {"stop_id": "HT_256", "stop_name": "UIN Sunan Kalijaga - A", "seq": 8, "lat": -7.786192, "lon": 110.394844}, {"stop_id": "HT_047", "stop_name": "Gedung Wanita", "seq": 9, "lat": -7.783187, "lon": 110.39271}, {"stop_id": "HT_234", "stop_name": "Superindo Urip Sumoharjo", "seq": 10, "lat": -7.783094, "lon": 110.382333}, {"stop_id": "HT_044", "stop_name": "Galeria Mall", "seq": 11, "lat": -7.782352, "lon": 110.379319}, {"stop_id": "HT_091", "stop_name": "Kopma UGM", "seq": 12, "lat": -7.774326, "lon": 110.375122}, {"stop_id": "HT_156", "stop_name": "Polsek Depok Timur - A", "seq": 13, "lat": -7.762567, "lon": 110.415507}, {"stop_id": "HT_018", "stop_name": "Biologi UGM", "seq": 14, "lat": -7.765289, "lon": 110.376905}, {"stop_id": "HT_042", "stop_name": "FKG UGM - A", "seq": 15, "lat": -7.771354, "lon": 110.375119}, {"stop_id": "HT_042", "stop_name": "FKG UGM - A", "seq": 16, "lat": -7.771354, "lon": 110.375119}, {"stop_id": "HT_091", "stop_name": "Kopma UGM", "seq": 17, "lat": -7.774326, "lon": 110.375122}, {"stop_id": "HT_077", "stop_name": "KR - A", "seq": 18, "lat": -7.781692, "lon": 110.450503}, {"stop_id": "HT_101", "stop_name": "Lempuyangan", "seq": 19, "lat": -7.790441, "lon": 110.373639}, {"stop_id": "HT_051", "stop_name": "Hayam Wuruk - A", "seq": 20, "lat": -7.795676, "lon": 110.37263}, {"stop_id": "HT_129", "stop_name": "Pakualaman", "seq": 21, "lat": -7.801649, "lon": 110.375769}, {"stop_id": "HT_100", "stop_name": "Lapas Wirogunan - A", "seq": 22, "lat": -7.803958, "lon": 110.378249}, {"stop_id": "HT_127", "stop_name": "Nyutran Tamansiswa", "seq": 23, "lat": -7.810933, "lon": 110.376957}, {"stop_id": "HT_205", "stop_name": "STIE Kerjasama", "seq": 24, "lat": -7.816663, "lon": 110.382853}, {"stop_id": "HT_159", "stop_name": "Pramuka", "seq": 25, "lat": -7.818518, "lon": 110.387374}, {"stop_id": "HT_050", "stop_name": "Gudang SGM - A", "seq": 26, "lat": -7.827155, "lon": 110.389979}, {"stop_id": "HT_135", "stop_name": "Pasar Giwangan - A", "seq": 27, "lat": -7.831511, "lon": 110.390009}, {"stop_id": "HT_246", "stop_name": "Terminal Giwangan", "seq": 28, "lat": -7.834176, "lon": 110.391835}]}, "5A_0": {"route_id": "5A", "direction_id": 0, "stops": [{"stop_id": "HT_238", "stop_name": "TVRI - A", "seq": 0, "lat": -7.765273, "lon": 110.361649}, {"stop_id": "HT_088", "stop_name": "Karangwaru - A", "seq": 1, "lat": -7.772261, "lon": 110.361327}, {"stop_id": "HT_020", "stop_name": "Borobudur Plaza", "seq": 2, "lat": -7.778838, "lon": 110.362029}, {"stop_id": "HT_124", "stop_name": "Neutron Godean - A", "seq": 3, "lat": -7.771875, "lon": 110.310305}, {"stop_id": "HT_093", "stop_name": "Kosudgama", "seq": 4, "lat": -7.77617, "lon": 110.37861}, {"stop_id": "HT_261", "stop_name": "UNY Colombo", "seq": 5, "lat": -7.777757, "lon": 110.386689}, {"stop_id": "HT_028", "stop_name": "Demangan", "seq": 6, "lat": -7.783048, "lon": 110.388672}, {"stop_id": "HT_026", "stop_name": "De Britto", "seq": 7, "lat": -7.783094, "lon": 110.393893}, {"stop_id": "HT_003", "stop_name": "Ambarukmo - A", "seq": 8, "lat": -7.783292, "lon": 110.401786}, {"stop_id": "HT_062", "stop_name": "Janti Selatan", "seq": 9, "lat": -7.785772, "lon": 110.410482}, {"stop_id": "HT_063", "stop_name": "Janti Utara", "seq": 10, "lat": -7.783211, "lon": 110.411672}, {"stop_id": "HT_207", "stop_name": "Sahid J-Walk", "seq": 11, "lat": -7.779567, "lon": 110.414697}, {"stop_id": "HT_010", "stop_name": "Babarsari - A", "seq": 12, "lat": -7.77397, "lon": 110.412218}, {"stop_id": "HT_124", "stop_name": "Neutron Godean - A", "seq": 13, "lat": -7.771875, "lon": 110.310305}, {"stop_id": "HT_046", "stop_name": "Gardu PLN - A", "seq": 14, "lat": -7.739255, "lon": 110.392461}, {"stop_id": "HT_130", "stop_name": "Pakuwon Mall - A", "seq": 15, "lat": -7.758157, "lon": 110.399478}, {"stop_id": "HT_245", "stop_name": "Terminal Condongcatur", "seq": 16, "lat": -7.756625, "lon": 110.395875}, {"stop_id": "HT_113", "stop_name": "Manggung", "seq": 17, "lat": -7.758049, "lon": 110.386465}, {"stop_id": "HT_116", "stop_name": "McD", "seq": 18, "lat": -7.779392, "lon": 110.34209}, {"stop_id": "HT_042", "stop_name": "FKG UGM - A", "seq": 19, "lat": -7.771354, "lon": 110.375119}, {"stop_id": "HT_175", "stop_name": "RS Sardjito - A", "seq": 20, "lat": -7.767817, "lon": 110.374276}, {"stop_id": "HT_244", "stop_name": "Teknik UGM - A", "seq": 21, "lat": -7.764241, "lon": 110.374625}, {"stop_id": "HT_119", "stop_name": "Monjali - A", "seq": 22, "lat": -7.750564, "lon": 110.367625}, {"stop_id": "HT_247", "stop_name": "Terminal Jombor", "seq": 23, "lat": -7.747405, "lon": 110.361238}]}, "5B_0": {"route_id": "5B", "direction_id": 0, "stops": [{"stop_id": "HT_119", "stop_name": "Monjali - A", "seq": 0, "lat": -7.750564, "lon": 110.367625}, {"stop_id": "HT_244", "stop_name": "Teknik UGM - A", "seq": 1, "lat": -7.764241, "lon": 110.374625}, {"stop_id": "HT_042", "stop_name": "FKG UGM - A", "seq": 2, "lat": -7.771354, "lon": 110.375119}, {"stop_id": "HT_042", "stop_name": "FKG UGM - A", "seq": 3, "lat": -7.771354, "lon": 110.375119}, {"stop_id": "HT_055", "stop_name": "Hotel Vidi", "seq": 4, "lat": -7.761786, "lon": 110.380208}, {"stop_id": "HT_090", "stop_name": "Kentungan", "seq": 5, "lat": -7.756098, "lon": 110.384626}, {"stop_id": "HT_245", "stop_name": "Terminal Condongcatur", "seq": 6, "lat": -7.756625, "lon": 110.395875}, {"stop_id": "HT_241", "stop_name": "Tarumartani - A", "seq": 7, "lat": -7.790501, "lon": 110.381988}, {"stop_id": "HT_171", "stop_name": "RS JIH", "seq": 8, "lat": -7.758875, "lon": 110.403075}, {"stop_id": "HT_232", "stop_name": "Stikes Guna Bangsa", "seq": 9, "lat": -7.760772, "lon": 110.408957}, {"stop_id": "HT_206", "stop_name": "STIE YKPN - A", "seq": 10, "lat": -7.767023, "lon": 110.410413}, {"stop_id": "HT_010", "stop_name": "Babarsari - A", "seq": 11, "lat": -7.77397, "lon": 110.412218}, {"stop_id": "HT_032", "stop_name": "Dishub DIY - A", "seq": 12, "lat": -7.777974, "lon": 110.415027}, {"stop_id": "HT_068", "stop_name": "Jl. Suroto", "seq": 13, "lat": -7.784524, "lon": 110.374671}, {"stop_id": "HT_212", "stop_name": "Selokan Mataram Maguwo", "seq": 14, "lat": -7.77096, "lon": 110.431043}, {"stop_id": "HT_012", "stop_name": "Bandara Adisujtipto", "seq": 15, "lat": -7.784497, "lon": 110.435712}, {"stop_id": "HT_056", "stop_name": "Hyundai", "seq": 16, "lat": -7.783518, "lon": 110.428348}, {"stop_id": "HT_064", "stop_name": "Jayakarta", "seq": 17, "lat": -7.783404, "lon": 110.419409}, {"stop_id": "HT_062", "stop_name": "Janti Selatan", "seq": 18, "lat": -7.785772, "lon": 110.410482}, {"stop_id": "HT_071", "stop_name": "Jogjatronik", "seq": 19, "lat": -7.806218, "lon": 110.369302}, {"stop_id": "HT_047", "stop_name": "Gedung Wanita", "seq": 20, "lat": -7.783187, "lon": 110.39271}, {"stop_id": "HT_234", "stop_name": "Superindo Urip Sumoharjo", "seq": 21, "lat": -7.783094, "lon": 110.382333}, {"stop_id": "HT_168", "stop_name": "RS Bethesda", "seq": 22, "lat": -7.783037, "lon": 110.378017}, {"stop_id": "HT_077", "stop_name": "KR - A", "seq": 23, "lat": -7.781692, "lon": 110.450503}, {"stop_id": "HT_024", "stop_name": "Cik Di Tiro", "seq": 24, "lat": -7.782357, "lon": 110.375104}, {"stop_id": "HT_194", "stop_name": "SMPN 1 - A", "seq": 25, "lat": -7.777468, "lon": 110.375811}, {"stop_id": "HT_200", "stop_name": "SMPN 6", "seq": 26, "lat": -7.778079, "lon": 110.366993}, {"stop_id": "HT_088", "stop_name": "Karangwaru - A", "seq": 27, "lat": -7.772261, "lon": 110.361327}, {"stop_id": "HT_100", "stop_name": "Lapas Wirogunan - A", "seq": 28, "lat": -7.803958, "lon": 110.378249}, {"stop_id": "HT_070", "stop_name": "Jogja City Mall - A", "seq": 29, "lat": -7.753296, "lon": 110.36222}, {"stop_id": "HT_247", "stop_name": "Terminal Jombor", "seq": 30, "lat": -7.747405, "lon": 110.361238}]}, "6_0": {"route_id": "6", "direction_id": 0, "stops": [{"stop_id": "HT_132", "stop_name": "Park and Ride Gamping", "seq": 0, "lat": -7.802454, "lon": 110.314878}, {"stop_id": "HT_128", "stop_name": "PKU Gamping", "seq": 1, "lat": -7.80188, "lon": 110.31679}, {"stop_id": "HT_134", "stop_name": "Pasar Gamping - A", "seq": 2, "lat": -7.800627, "lon": 110.323811}, {"stop_id": "HT_158", "stop_name": "Poltekkes BSI", "seq": 3, "lat": -7.814373, "lon": 110.402114}, {"stop_id": "HT_258", "stop_name": "UMY - A", "seq": 4, "lat": -7.810704, "lon": 110.324509}, {"stop_id": "HT_258", "stop_name": "UMY - A", "seq": 5, "lat": -7.810704, "lon": 110.324509}, {"stop_id": "HT_264", "stop_name": "Universitas Alma Ata", "seq": 6, "lat": -7.818408, "lon": 110.324131}, {"stop_id": "HT_011", "stop_name": "Badran", "seq": 7, "lat": -7.788092, "lon": 110.357905}, {"stop_id": "HT_098", "stop_name": "Lap. Kasihan - A", "seq": 8, "lat": -7.824988, "lon": 110.328143}, {"stop_id": "HT_218", "stop_name": "Simpang Diklat DIY - A", "seq": 9, "lat": -7.828797, "lon": 110.332504}, {"stop_id": "HT_047", "stop_name": "Gedung Wanita", "seq": 10, "lat": -7.783187, "lon": 110.39271}, {"stop_id": "HT_104", "stop_name": "MAN 1", "seq": 11, "lat": -7.777133, "lon": 110.373921}, {"stop_id": "HT_189", "stop_name": "SMK Seni - A", "seq": 12, "lat": -7.814457, "lon": 110.34899}, {"stop_id": "HT_141", "stop_name": "Pasar Legi - A", "seq": 13, "lat": -7.809109, "lon": 110.350094}, {"stop_id": "HT_120", "stop_name": "Mualimin - A", "seq": 14, "lat": -7.807875, "lon": 110.350951}, {"stop_id": "HT_240", "stop_name": "Tamansari", "seq": 15, "lat": -7.809838, "lon": 110.356008}, {"stop_id": "HT_125", "stop_name": "Ngabean", "seq": 16, "lat": -7.803719, "lon": 110.356236}, {"stop_id": "HT_075", "stop_name": "KHA Dahlan - A", "seq": 17, "lat": -7.801281, "lon": 110.360133}, {"stop_id": "HT_239", "stop_name": "Taman Pintar", "seq": 18, "lat": -7.801416, "lon": 110.367152}, {"stop_id": "HT_235", "stop_name": "Suryotomo", "seq": 19, "lat": -7.79926, "lon": 110.369312}, {"stop_id": "HT_161", "stop_name": "Progo", "seq": 20, "lat": -7.798033, "lon": 110.369306}, {"stop_id": "HT_066", "stop_name": "Jl. Mataram", "seq": 21, "lat": -7.794209, "lon": 110.36806}, {"stop_id": "HT_111", "stop_name": "Malioboro 2", "seq": 22, "lat": -7.795219, "lon": 110.365592}, {"stop_id": "HT_110", "stop_name": "Malioboro 1", "seq": 23, "lat": -7.790849, "lon": 110.366122}, {"stop_id": "HT_111", "stop_name": "Malioboro 2", "seq": 24, "lat": -7.795219, "lon": 110.365592}, {"stop_id": "HT_112", "stop_name": "Malioboro 3", "seq": 25, "lat": -7.7999, "lon": 110.364998}, {"stop_id": "HT_075", "stop_name": "KHA Dahlan - A", "seq": 26, "lat": -7.801281, "lon": 110.360133}, {"stop_id": "HT_125", "stop_name": "Ngabean", "seq": 27, "lat": -7.803719, "lon": 110.356236}, {"stop_id": "HT_120", "stop_name": "Mualimin - A", "seq": 28, "lat": -7.807875, "lon": 110.350951}, {"stop_id": "HT_141", "stop_name": "Pasar Legi - A", "seq": 29, "lat": -7.809109, "lon": 110.350094}, {"stop_id": "HT_189", "stop_name": "SMK Seni - A", "seq": 30, "lat": -7.814457, "lon": 110.34899}, {"stop_id": "HT_104", "stop_name": "MAN 1", "seq": 31, "lat": -7.777133, "lon": 110.373921}, {"stop_id": "HT_047", "stop_name": "Gedung Wanita", "seq": 32, "lat": -7.783187, "lon": 110.39271}, {"stop_id": "HT_155", "stop_name": "Polres Bantul", "seq": 33, "lat": -7.889805, "lon": 110.326512}, {"stop_id": "HT_098", "stop_name": "Lap. Kasihan - A", "seq": 34, "lat": -7.824988, "lon": 110.328143}, {"stop_id": "HT_011", "stop_name": "Badran", "seq": 35, "lat": -7.788092, "lon": 110.357905}, {"stop_id": "HT_062", "stop_name": "Janti Selatan", "seq": 36, "lat": -7.785772, "lon": 110.410482}, {"stop_id": "HT_258", "stop_name": "UMY - A", "seq": 37, "lat": -7.810704, "lon": 110.324509}, {"stop_id": "HT_098", "stop_name": "Lap. Kasihan - A", "seq": 38, "lat": -7.824988, "lon": 110.328143}, {"stop_id": "HT_134", "stop_name": "Pasar Gamping - A", "seq": 39, "lat": -7.800627, "lon": 110.323811}, {"stop_id": "HT_008", "stop_name": "BPD Gamping", "seq": 40, "lat": -7.801615, "lon": 110.318669}, {"stop_id": "HT_132", "stop_name": "Park and Ride Gamping", "seq": 41, "lat": -7.802454, "lon": 110.314878}]}, "8_0": {"route_id": "8", "direction_id": 0, "stops": [{"stop_id": "HT_077", "stop_name": "KR - A", "seq": 0, "lat": -7.781692, "lon": 110.450503}, {"stop_id": "HT_268", "stop_name": "Westlake - A", "seq": 1, "lat": -7.749237, "lon": 110.341112}, {"stop_id": "HT_213", "stop_name": "Senopati", "seq": 2, "lat": -7.801501, "lon": 110.367038}, {"stop_id": "HT_205", "stop_name": "STIE Kerjasama", "seq": 3, "lat": -7.816663, "lon": 110.382853}, {"stop_id": "HT_027", "stop_name": "Demak Ijo - A", "seq": 4, "lat": -7.776496, "lon": 110.332008}, {"stop_id": "HT_083", "stop_name": "Kantor Kap. Godean - A", "seq": 5, "lat": -7.769368, "lon": 110.300242}, {"stop_id": "HT_118", "stop_name": "Mirota Godean - A", "seq": 6, "lat": -7.781082, "lon": 110.349717}, {"stop_id": "HT_114", "stop_name": "Mangkubumi 1", "seq": 7, "lat": -7.784763, "lon": 110.366863}, {"stop_id": "HT_115", "stop_name": "Mangkubumi 2", "seq": 8, "lat": -7.787674, "lon": 110.3665}, {"stop_id": "HT_110", "stop_name": "Malioboro 1", "seq": 9, "lat": -7.790849, "lon": 110.366122}, {"stop_id": "HT_111", "stop_name": "Malioboro 2", "seq": 10, "lat": -7.795219, "lon": 110.365592}, {"stop_id": "HT_112", "stop_name": "Malioboro 3", "seq": 11, "lat": -7.7999, "lon": 110.364998}, {"stop_id": "HT_075", "stop_name": "KHA Dahlan - A", "seq": 12, "lat": -7.801281, "lon": 110.360133}, {"stop_id": "HT_035", "stop_name": "Dukuh - A", "seq": 13, "lat": -7.821686, "lon": 110.355174}, {"stop_id": "HT_150", "stop_name": "Pasty - A", "seq": 14, "lat": -7.825689, "lon": 110.354483}, {"stop_id": "HT_076", "stop_name": "KKP Yogyakarta", "seq": 15, "lat": -7.782053, "lon": 110.429895}, {"stop_id": "HT_137", "stop_name": "Pasar Kalasan -  B", "seq": 16, "lat": -7.769913, "lon": 110.468993}, {"stop_id": "HT_072", "stop_name": "Jogokariyan - A", "seq": 17, "lat": -7.82335, "lon": 110.367736}, {"stop_id": "HT_074", "stop_name": "Jokteng Wetan", "seq": 18, "lat": -7.814656, "lon": 110.367221}, {"stop_id": "HT_134", "stop_name": "Pasar Gamping - A", "seq": 19, "lat": -7.800627, "lon": 110.323811}, {"stop_id": "HT_188", "stop_name": "SMAN 7", "seq": 20, "lat": -7.813417, "lon": 110.358131}, {"stop_id": "HT_240", "stop_name": "Tamansari", "seq": 21, "lat": -7.809838, "lon": 110.356008}, {"stop_id": "HT_125", "stop_name": "Ngabean", "seq": 22, "lat": -7.803719, "lon": 110.356236}, {"stop_id": "HT_075", "stop_name": "KHA Dahlan - A", "seq": 23, "lat": -7.801281, "lon": 110.360133}, {"stop_id": "HT_016", "stop_name": "Bhayangkara", "seq": 24, "lat": -7.799309, "lon": 110.362097}, {"stop_id": "HT_143", "stop_name": "Pasar Pathuk", "seq": 25, "lat": -7.795994, "lon": 110.361866}, {"stop_id": "HT_271", "stop_name": "Wojo (Randubelang) - A", "seq": 26, "lat": -7.831416, "lon": 110.373919}, {"stop_id": "HT_069", "stop_name": "Jlagran", "seq": 27, "lat": -7.789467, "lon": 110.358868}, {"stop_id": "HT_118", "stop_name": "Mirota Godean - A", "seq": 28, "lat": -7.781082, "lon": 110.349717}, {"stop_id": "HT_029", "stop_name": "Dentes Godean", "seq": 29, "lat": -7.779783, "lon": 110.34374}, {"stop_id": "HT_027", "stop_name": "Demak Ijo - A", "seq": 30, "lat": -7.776496, "lon": 110.332008}, {"stop_id": "HT_263", "stop_name": "Universitas Aisyiyah", "seq": 31, "lat": -7.768221, "lon": 110.334536}, {"stop_id": "HT_268", "stop_name": "Westlake - A", "seq": 32, "lat": -7.749237, "lon": 110.341112}, {"stop_id": "HT_077", "stop_name": "KR - A", "seq": 33, "lat": -7.781692, "lon": 110.450503}, {"stop_id": "HT_247", "stop_name": "Terminal Jombor", "seq": 34, "lat": -7.747405, "lon": 110.361238}]}, "9_0": {"route_id": "9", "direction_id": 0, "stops": [{"stop_id": "HT_229", "stop_name": "Simpang Wojo", "seq": 0, "lat": -7.836372, "lon": 110.373776}, {"stop_id": "HT_076", "stop_name": "KKP Yogyakarta", "seq": 1, "lat": -7.782053, "lon": 110.429895}, {"stop_id": "HT_150", "stop_name": "Pasty - A", "seq": 2, "lat": -7.825689, "lon": 110.354483}, {"stop_id": "HT_035", "stop_name": "Dukuh - A", "seq": 3, "lat": -7.821686, "lon": 110.355174}, {"stop_id": "HT_049", "stop_name": "Gereja Pugeran - A", "seq": 4, "lat": -7.816599, "lon": 110.355899}, {"stop_id": "HT_240", "stop_name": "Tamansari", "seq": 5, "lat": -7.809838, "lon": 110.356008}, {"stop_id": "HT_147", "stop_name": "Pasar Serangan - A", "seq": 6, "lat": -7.801112, "lon": 110.354235}, {"stop_id": "HT_077", "stop_name": "KR - A", "seq": 7, "lat": -7.781692, "lon": 110.450503}, {"stop_id": "HT_194", "stop_name": "SMPN 1 - A", "seq": 8, "lat": -7.777468, "lon": 110.375811}, {"stop_id": "HT_209", "stop_name": "Samsat", "seq": 9, "lat": -7.787165, "lon": 110.359764}, {"stop_id": "HT_194", "stop_name": "SMPN 1 - A", "seq": 10, "lat": -7.777468, "lon": 110.375811}, {"stop_id": "HT_054", "stop_name": "Hotel Utara - A", "seq": 11, "lat": -7.780412, "lon": 110.360941}, {"stop_id": "HT_088", "stop_name": "Karangwaru - A", "seq": 12, "lat": -7.772261, "lon": 110.361327}, {"stop_id": "HT_100", "stop_name": "Lapas Wirogunan - A", "seq": 13, "lat": -7.803958, "lon": 110.378249}, {"stop_id": "HT_070", "stop_name": "Jogja City Mall - A", "seq": 14, "lat": -7.753296, "lon": 110.36222}, {"stop_id": "HT_247", "stop_name": "Terminal Jombor", "seq": 15, "lat": -7.747405, "lon": 110.361238}, {"stop_id": "HT_070", "stop_name": "Jogja City Mall - A", "seq": 16, "lat": -7.753296, "lon": 110.36222}, {"stop_id": "HT_238", "stop_name": "TVRI - A", "seq": 17, "lat": -7.765273, "lon": 110.361649}, {"stop_id": "HT_088", "stop_name": "Karangwaru - A", "seq": 18, "lat": -7.772261, "lon": 110.361327}, {"stop_id": "HT_209", "stop_name": "Samsat", "seq": 19, "lat": -7.787165, "lon": 110.359764}, {"stop_id": "HT_102", "stop_name": "Letjen Suprapto", "seq": 20, "lat": -7.790841, "lon": 110.357437}, {"stop_id": "HT_125", "stop_name": "Ngabean", "seq": 21, "lat": -7.803719, "lon": 110.356236}, {"stop_id": "HT_073", "stop_name": "Jokteng Kulon", "seq": 22, "lat": -7.813247, "lon": 110.357346}, {"stop_id": "HT_154", "stop_name": "Plengkung Gading - A", "seq": 23, "lat": -7.814171, "lon": 110.363901}, {"stop_id": "HT_072", "stop_name": "Jogokariyan - A", "seq": 24, "lat": -7.82335, "lon": 110.367736}, {"stop_id": "HT_246", "stop_name": "Terminal Giwangan", "seq": 25, "lat": -7.834176, "lon": 110.391835}]}, "L-1_0": {"route_id": "L-1", "direction_id": 0, "stops": [{"stop_id": "HT_247", "stop_name": "Terminal Jombor", "seq": 0, "lat": -7.747405, "lon": 110.361238}, {"stop_id": "HT_057", "stop_name": "Indogrosir", "seq": 1, "lat": -7.750821, "lon": 110.362351}, {"stop_id": "HT_070", "stop_name": "Jogja City Mall - A", "seq": 2, "lat": -7.753296, "lon": 110.36222}, {"stop_id": "HT_005", "stop_name": "Atakrib Jl. Magelang", "seq": 3, "lat": -7.756425, "lon": 110.362072}, {"stop_id": "HT_238", "stop_name": "TVRI - A", "seq": 4, "lat": -7.765273, "lon": 110.361649}, {"stop_id": "HT_088", "stop_name": "Karangwaru - A", "seq": 5, "lat": -7.772261, "lon": 110.361327}, {"stop_id": "HT_054", "stop_name": "Hotel Utara - A", "seq": 6, "lat": -7.780412, "lon": 110.360941}, {"stop_id": "HT_140", "stop_name": "Pasar Kranggan Selatan", "seq": 7, "lat": -7.782845, "lon": 110.365659}, {"stop_id": "HT_114", "stop_name": "Mangkubumi 1", "seq": 8, "lat": -7.784763, "lon": 110.366863}, {"stop_id": "HT_115", "stop_name": "Mangkubumi 2", "seq": 9, "lat": -7.787674, "lon": 110.3665}, {"stop_id": "HT_110", "stop_name": "Malioboro 1", "seq": 10, "lat": -7.790849, "lon": 110.366122}, {"stop_id": "HT_111", "stop_name": "Malioboro 2", "seq": 11, "lat": -7.795219, "lon": 110.365592}, {"stop_id": "HT_112", "stop_name": "Malioboro 3", "seq": 12, "lat": -7.7999, "lon": 110.364998}, {"stop_id": "HT_016", "stop_name": "Bhayangkara", "seq": 13, "lat": -7.799309, "lon": 110.362097}, {"stop_id": "HT_143", "stop_name": "Pasar Pathuk", "seq": 14, "lat": -7.795994, "lon": 110.361866}, {"stop_id": "HT_230", "stop_name": "Sosrowijayan", "seq": 15, "lat": -7.79207, "lon": 110.361618}, {"stop_id": "HT_231", "stop_name": "Stasiun Yogyakarta", "seq": 16, "lat": -7.789651, "lon": 110.361724}, {"stop_id": "HT_069", "stop_name": "Jlagran", "seq": 17, "lat": -7.789467, "lon": 110.358868}, {"stop_id": "HT_011", "stop_name": "Badran", "seq": 18, "lat": -7.788092, "lon": 110.357905}, {"stop_id": "HT_196", "stop_name": "SMPN 14", "seq": 19, "lat": -7.786576, "lon": 110.359987}, {"stop_id": "HT_054", "stop_name": "Hotel Utara - A", "seq": 20, "lat": -7.780412, "lon": 110.360941}, {"stop_id": "HT_095", "stop_name": "Kricak", "seq": 21, "lat": -7.774326, "lon": 110.361168}, {"stop_id": "HT_088", "stop_name": "Karangwaru - A", "seq": 22, "lat": -7.772261, "lon": 110.361327}, {"stop_id": "HT_238", "stop_name": "TVRI - A", "seq": 23, "lat": -7.765273, "lon": 110.361649}, {"stop_id": "HT_025", "stop_name": "Daytrans Jl. Magelang", "seq": 24, "lat": -7.756415, "lon": 110.361995}, {"stop_id": "HT_070", "stop_name": "Jogja City Mall - A", "seq": 25, "lat": -7.753296, "lon": 110.36222}, {"stop_id": "HT_107", "stop_name": "MMTC Yogyakarta", "seq": 26, "lat": -7.750655, "lon": 110.362263}]}}